{
   "type": "FeatureCollection",
   "features": [
  {
    "type": "Feature",
    "geometry": {
       "type": "Point",
       "coordinates":  [ -96.481944,31.168889,136.9 ]
    },
    "properties": {
    "AQSID":"483951076",
    "SiteName":"Franklin Oak Grove",
    "Status":"Active",
    "State":"TX",
    "Date":"4/25/2020",
    "Time":"4:00",
    "Ozone":-9999,
    "PM10":-9999,
    "PM25":-9999,
    "NO2":-9999
    }
  },
  {
    "type": "Feature",
    "geometry": {
       "type": "Point",
       "coordinates":  [ -105.5453,40.2778,2744.7 ]
    },
    "properties": {
    "AQSID":"80699991",
    "SiteName":"Rocky Mtn NP Collocated",
    "Status":"Active",
    "State":"CO",
    "Date":"4/25/2020",
    "Time":"4:00",
    "Ozone":-9999,
    "PM10":-9999,
    "PM25":-9999,
    "NO2":-9999
    }
  },
  {
    "type": "Feature",
    "geometry": {
       "type": "Point",
       "coordinates":  [ -117.34327,47.808226,577.4 ]
    },
    "properties": {
    "AQSID":"530639995",
    "SiteName":"Colbert-Greenbluff",
    "Status":"Active",
    "State":"WA",
    "Date":"4/25/2020",
    "Time":"4:00",
    "Ozone":-9999,
    "PM10":-9999,
    "PM25":27,
    "NO2":-9999
    }
  },
  {
    "type": "Feature",
    "geometry": {
       "type": "Point",
       "coordinates":  [ -117.257652,47.663963,611.2 ]
    },
    "properties": {
    "AQSID":"530639997",
    "SiteName":"Spokane-E Broadway Ave (US)",
    "Status":"Active",
    "State":"WA",
    "Date":"4/25/2020",
    "Time":"4:00",
    "Ozone":-9999,
    "PM10":-9999,
    "PM25":20,
    "NO2":-9999
    }
  },
  {
    "type": "Feature",
    "geometry": {
       "type": "Point",
       "coordinates":  [ -117.084503,47.660568,650.3 ]
    },
    "properties": {
    "AQSID":"530639996",
    "SiteName":"Liberty Lake-E Valeyway (US)",
    "Status":"Inactive",
    "State":"WA",
    "Date":"4/25/2020",
    "Time":"4:00",
    "Ozone":-9999,
    "PM10":-9999,
    "PM25":-9999,
    "NO2":-9999
    }
  },
  {
    "type": "Feature",
    "geometry": {
       "type": "Point",
       "coordinates":  [ -81.276833,29.489082,0 ]
    },
    "properties": {
    "AQSID":"120350004",
    "SiteName":"Flagler County",
    "Status":"Active",
    "State":"FL",
    "Date":"4/25/2020",
    "Time":"4:00",
    "Ozone":29,
    "PM10":-9999,
    "PM25":-9999,
    "NO2":-9999
    }
  },
  {
    "type": "Feature",
    "geometry": {
       "type": "Point",
       "coordinates":  [ -76.746814,39.371679,132.7 ]
    },
    "properties": {
    "AQSID":"240050009",
    "SiteName":"Baltimore County Near Road",
    "Status":"Active",
    "State":"MD",
    "Date":"4/25/2020",
    "Time":"4:00",
    "Ozone":-9999,
    "PM10":-9999,
    "PM25":-9999,
    "NO2":15
    }
  },
  {
    "type": "Feature",
    "geometry": {
       "type": "Point",
       "coordinates":  [ -74.156898,40.631699,0 ]
    },
    "properties": {
    "AQSID":"360850114",
    "SiteName":"Staten Island",
    "Status":"Inactive",
    "State":"NY",
    "Date":"4/25/2020",
    "Time":"4:00",
    "Ozone":-9999,
    "PM10":-9999,
    "PM25":-9999,
    "NO2":-9999
    }
  },
  {
    "type": "Feature",
    "geometry": {
       "type": "Point",
       "coordinates":  [ -119.218483,38.257656,0 ]
    },
    "properties": {
    "AQSID":"MMGBU1001",
    "SiteName":"GBUAPCD EBAM @ Bridgeport",
    "Status":"Inactive",
    "State":"MM",
    "Date":"4/25/2020",
    "Time":"4:00",
    "Ozone":-9999,
    "PM10":-9999,
    "PM25":-9999,
    "NO2":-9999
    }
  },
  {
    "type": "Feature",
    "geometry": {
       "type": "Point",
       "coordinates":  [ -74.1994,40.5802,0 ]
    },
    "properties": {
    "AQSID":"360850111",
    "SiteName":"Fresh Kills",
    "Status":"Active",
    "State":"NY",
    "Date":"4/25/2020",
    "Time":"4:00",
    "Ozone":8,
    "PM10":-9999,
    "PM25":23,
    "NO2":-9999
    }
  },
  {
    "type": "Feature",
    "geometry": {
       "type": "Point",
       "coordinates":  [ -84.538375,39.146025,0 ]
    },
    "properties": {
    "AQSID":"390610048",
    "SiteName":"Cincinnati Near Road",
    "Status":"Active",
    "State":"OH",
    "Date":"4/25/2020",
    "Time":"4:00",
    "Ozone":-9999,
    "PM10":-9999,
    "PM25":78,
    "NO2":22
    }
  },
  {
    "type": "Feature",
    "geometry": {
       "type": "Point",
       "coordinates":  [ -118.475897,37.817763,0 ]
    },
    "properties": {
    "AQSID":"MMGBU1000",
    "SiteName":"GBUAPCD EBAM @ Benton",
    "Status":"Inactive",
    "State":"MM",
    "Date":"4/25/2020",
    "Time":"4:00",
    "Ozone":-9999,
    "PM10":-9999,
    "PM25":-9999,
    "NO2":-9999
    }
  },
  {
    "type": "Feature",
    "geometry": {
       "type": "Point",
       "coordinates":  [ -106.306107,40.882198,2418.3 ]
    },
    "properties": {
    "AQSID":"80570003",
    "SiteName":"Walden, CO",
    "Status":"Inactive",
    "State":"CO",
    "Date":"4/25/2020",
    "Time":"4:00",
    "Ozone":-9999,
    "PM10":-9999,
    "PM25":-9999,
    "NO2":-9999
    }
  },
  {
    "type": "Feature",
    "geometry": {
       "type": "Point",
       "coordinates":  [ -117.277496,48.3456,630.1 ]
    },
    "properties": {
    "AQSID":"530510007",
    "SiteName":"Usk-Kalispel Tribe",
    "Status":"Inactive",
    "State":"WA",
    "Date":"4/25/2020",
    "Time":"4:00",
    "Ozone":-9999,
    "PM10":-9999,
    "PM25":-9999,
    "NO2":-9999
    }
  },
  {
    "type": "Feature",
    "geometry": {
       "type": "Point",
       "coordinates":  [ -84.50404,39.12886,0 ]
    },
    "properties": {
    "AQSID":"390610040",
    "SiteName":"Taft",
    "Status":"Active",
    "State":"OH",
    "Date":"4/25/2020",
    "Time":"4:00",
    "Ozone":20,
    "PM10":28,
    "PM25":55,
    "NO2":14
    }
  },
  {
    "type": "Feature",
    "geometry": {
       "type": "Point",
       "coordinates":  [ -80.658908,41.096158,0 ]
    },
    "properties": {
    "AQSID":"390990013",
    "SiteName":"Youngstown - Oakhill",
    "Status":"Active",
    "State":"OH",
    "Date":"4/25/2020",
    "Time":"4:00",
    "Ozone":36,
    "PM10":-9999,
    "PM25":-9999,
    "NO2":-9999
    }
  },
  {
    "type": "Feature",
    "geometry": {
       "type": "Point",
       "coordinates":  [ -82.810667,34.635958,0 ]
    },
    "properties": {
    "AQSID":"8.4045E+11",
    "SiteName":"Garrison Arena",
    "Status":"Active",
    "State":"SC",
    "Date":"4/25/2020",
    "Time":"4:00",
    "Ozone":17,
    "PM10":-9999,
    "PM25":-9999,
    "NO2":-9999
    }
  },
  {
    "type": "Feature",
    "geometry": {
       "type": "Point",
       "coordinates":  [ -80.658467,41.095938,0 ]
    },
    "properties": {
    "AQSID":"390990014",
    "SiteName":"Youngstown - Head Start",
    "Status":"Active",
    "State":"OH",
    "Date":"4/25/2020",
    "Time":"4:00",
    "Ozone":-9999,
    "PM10":-9999,
    "PM25":38,
    "NO2":-9999
    }
  },
  {
    "type": "Feature",
    "geometry": {
       "type": "Point",
       "coordinates":  [ -117.491982,34.100132,116.8 ]
    },
    "properties": {
    "AQSID":"60712002",
    "SiteName":"Fontana - Arrow Highway",
    "Status":"Active",
    "State":"CA",
    "Date":"4/25/2020",
    "Time":"4:00",
    "Ozone":41,
    "PM10":-9999,
    "PM25":-9999,
    "NO2":19
    }
  },
  {
    "type": "Feature",
    "geometry": {
       "type": "Point",
       "coordinates":  [ -82.432436,38.410242,0 ]
    },
    "properties": {
    "AQSID":"8.4054E+11",
    "SiteName":"HUNTINGTON",
    "Status":"Active",
    "State":"WV",
    "Date":"4/25/2020",
    "Time":"4:00",
    "Ozone":6,
    "PM10":-9999,
    "PM25":-9999,
    "NO2":-9999
    }
  },
  {
    "type": "Feature",
    "geometry": {
       "type": "Point",
       "coordinates":  [ -118.130689,34.669589,719.5 ]
    },
    "properties": {
    "AQSID":"60379033",
    "SiteName":"Lancaster-Division",
    "Status":"Active",
    "State":"CA",
    "Date":"4/25/2020",
    "Time":"4:00",
    "Ozone":41,
    "PM10":16,
    "PM25":27,
    "NO2":-9999
    }
  },
  {
    "type": "Feature",
    "geometry": {
       "type": "Point",
       "coordinates":  [ -118.8791,34.8289,0 ]
    },
    "properties": {
    "AQSID":"60379034",
    "SiteName":"Lebec",
    "Status":"Inactive",
    "State":"CA",
    "Date":"4/25/2020",
    "Time":"4:00",
    "Ozone":-9999,
    "PM10":-9999,
    "PM25":-9999,
    "NO2":-9999
    }
  },
  {
    "type": "Feature",
    "geometry": {
       "type": "Point",
       "coordinates":  [ -109.7531,42.7186,2168.2 ]
    },
    "properties": {
    "AQSID":"560350099",
    "SiteName":"Boulder",
    "Status":"Active",
    "State":"WY",
    "Date":"4/25/2020",
    "Time":"4:00",
    "Ozone":39,
    "PM10":1,
    "PM25":-9999,
    "NO2":0
    }
  },
  {
    "type": "Feature",
    "geometry": {
       "type": "Point",
       "coordinates":  [ -72.3867,41.9756,0 ]
    },
    "properties": {
    "AQSID":"90131001",
    "SiteName":"Stafford",
    "Status":"Active",
    "State":"CT",
    "Date":"4/25/2020",
    "Time":"4:00",
    "Ozone":37,
    "PM10":-9999,
    "PM25":-9999,
    "NO2":-9999
    }
  },
  {
    "type": "Feature",
    "geometry": {
       "type": "Point",
       "coordinates":  [ -95.041389,29.38777,6.1 ]
    },
    "properties": {
    "AQSID":"481670697",
    "SiteName":"Coastal Center C697",
    "Status":"Inactive",
    "State":"TX",
    "Date":"4/25/2020",
    "Time":"4:00",
    "Ozone":-9999,
    "PM10":-9999,
    "PM25":-9999,
    "NO2":-9999
    }
  },
  {
    "type": "Feature",
    "geometry": {
       "type": "Point",
       "coordinates":  [ -110.353058,42.98,2477.8 ]
    },
    "properties": {
    "AQSID":"560350097",
    "SiteName":"Wyoming Range",
    "Status":"Inactive",
    "State":"WY",
    "Date":"4/25/2020",
    "Time":"4:00",
    "Ozone":-9999,
    "PM10":-9999,
    "PM25":-9999,
    "NO2":-9999
    }
  },
  {
    "type": "Feature",
    "geometry": {
       "type": "Point",
       "coordinates":  [ -119.4039,35.0544,0 ]
    },
    "properties": {
    "AQSID":"60290008",
    "SiteName":"Maricopa - Stanilaus Street",
    "Status":"Active",
    "State":"CA",
    "Date":"4/25/2020",
    "Time":"4:00",
    "Ozone":42,
    "PM10":-9999,
    "PM25":-9999,
    "NO2":-9999
    }
  },
  {
    "type": "Feature",
    "geometry": {
       "type": "Point",
       "coordinates":  [ -118.851825,35.345607,0 ]
    },
    "properties": {
    "AQSID":"60290007",
    "SiteName":"Edison",
    "Status":"Active",
    "State":"CA",
    "Date":"4/25/2020",
    "Time":"4:00",
    "Ozone":35,
    "PM10":-9999,
    "PM25":-9999,
    "NO2":4
    }
  },
  {
    "type": "Feature",
    "geometry": {
       "type": "Point",
       "coordinates":  [ -97.1175,32.5418,195.2 ]
    },
    "properties": {
    "AQSID":"482511063",
    "SiteName":"Mansfield Flying L Lane C1063",
    "Status":"Active",
    "State":"TX",
    "Date":"4/25/2020",
    "Time":"4:00",
    "Ozone":-9999,
    "PM10":-9999,
    "PM25":-9999,
    "NO2":-9999
    }
  },
  {
    "type": "Feature",
    "geometry": {
       "type": "Point",
       "coordinates":  [ -123.348466,42.434149,280 ]
    },
    "properties": {
    "AQSID":"410330114",
    "SiteName":"Grants Pass - Parkside School",
    "Status":"Active",
    "State":"OR",
    "Date":"4/25/2020",
    "Time":"4:00",
    "Ozone":-9999,
    "PM10":-9999,
    "PM25":13,
    "NO2":-9999
    }
  },
  {
    "type": "Feature",
    "geometry": {
       "type": "Point",
       "coordinates":  [ -118.226755,34.066429,30.5 ]
    },
    "properties": {
    "AQSID":"60371103",
    "SiteName":"Los Angeles - N. Main Street",
    "Status":"Active",
    "State":"CA",
    "Date":"4/25/2020",
    "Time":"4:00",
    "Ozone":31,
    "PM10":19,
    "PM25":37,
    "NO2":6
    }
  },
  {
    "type": "Feature",
    "geometry": {
       "type": "Point",
       "coordinates":  [ -121.9786,37.2267,35.4 ]
    },
    "properties": {
    "AQSID":"60851001",
    "SiteName":"Los Gatos",
    "Status":"Active",
    "State":"CA",
    "Date":"4/25/2020",
    "Time":"4:00",
    "Ozone":26,
    "PM10":-9999,
    "PM25":-9999,
    "NO2":-9999
    }
  },
  {
    "type": "Feature",
    "geometry": {
       "type": "Point",
       "coordinates":  [ -97.2278,31.6172,152.5 ]
    },
    "properties": {
    "AQSID":"483095010",
    "SiteName":"Waco KACT C5010",
    "Status":"Active",
    "State":"TX",
    "Date":"4/25/2020",
    "Time":"4:00",
    "Ozone":-9999,
    "PM10":-9999,
    "PM25":-9999,
    "NO2":-9999
    }
  },
  {
    "type": "Feature",
    "geometry": {
       "type": "Point",
       "coordinates":  [ -118.14778,35.05045,0 ]
    },
    "properties": {
    "AQSID":"60290011",
    "SiteName":"Mojave - 923 Poole St.",
    "Status":"Active",
    "State":"CA",
    "Date":"4/25/2020",
    "Time":"4:00",
    "Ozone":67,
    "PM10":18,
    "PM25":18,
    "NO2":-9999
    }
  },
  {
    "type": "Feature",
    "geometry": {
       "type": "Point",
       "coordinates":  [ -119.014702,35.3853,0 ]
    },
    "properties": {
    "AQSID":"60290010",
    "SiteName":"Bakersfield - Golden State Highway",
    "Status":"Inactive",
    "State":"CA",
    "Date":"4/25/2020",
    "Time":"4:00",
    "Ozone":-9999,
    "PM10":-9999,
    "PM25":-9999,
    "NO2":-9999
    }
  },
  {
    "type": "Feature",
    "geometry": {
       "type": "Point",
       "coordinates":  [ -117.673058,35.621113,0 ]
    },
    "properties": {
    "AQSID":"60290015",
    "SiteName":"Ridgecrest - California Ave",
    "Status":"Inactive",
    "State":"CA",
    "Date":"4/25/2020",
    "Time":"4:00",
    "Ozone":-9999,
    "PM10":-9999,
    "PM25":-9999,
    "NO2":-9999
    }
  },
  {
    "type": "Feature",
    "geometry": {
       "type": "Point",
       "coordinates":  [ -119.062613,35.356615,0 ]
    },
    "properties": {
    "AQSID":"60290014",
    "SiteName":"Bakersfield - California Ave",
    "Status":"Active",
    "State":"CA",
    "Date":"4/25/2020",
    "Time":"4:00",
    "Ozone":34,
    "PM10":-9999,
    "PM25":45,
    "NO2":9
    }
  },
  {
    "type": "Feature",
    "geometry": {
       "type": "Point",
       "coordinates":  [ -82.516303,36.532616,404.4 ]
    },
    "properties": {
    "AQSID":"471636001",
    "SiteName":"Eastman Ross N Robinson",
    "Status":"Active",
    "State":"TN",
    "Date":"4/25/2020",
    "Time":"4:00",
    "Ozone":-9999,
    "PM10":-9999,
    "PM25":-9999,
    "NO2":-9999
    }
  },
  {
    "type": "Feature",
    "geometry": {
       "type": "Point",
       "coordinates":  [ -95.3975,29.0111,3.1 ]
    },
    "properties": {
    "AQSID":"480391003",
    "SiteName":"Clute C11",
    "Status":"Active",
    "State":"TX",
    "Date":"4/25/2020",
    "Time":"4:00",
    "Ozone":-9999,
    "PM10":-9999,
    "PM25":-9999,
    "NO2":-9999
    }
  },
  {
    "type": "Feature",
    "geometry": {
       "type": "Point",
       "coordinates":  [ -95.3925,29.5203,0 ]
    },
    "properties": {
    "AQSID":"480391004",
    "SiteName":"Manvel Croix Park C84",
    "Status":"Active",
    "State":"TX",
    "Date":"4/25/2020",
    "Time":"4:00",
    "Ozone":37,
    "PM10":-9999,
    "PM25":-9999,
    "NO2":-9999
    }
  },
  {
    "type": "Feature",
    "geometry": {
       "type": "Point",
       "coordinates":  [ -82.516306,36.52102,530.7 ]
    },
    "properties": {
    "AQSID":"471636002",
    "SiteName":"Skyland Drive",
    "Status":"Active",
    "State":"TN",
    "Date":"4/25/2020",
    "Time":"4:00",
    "Ozone":-9999,
    "PM10":-9999,
    "PM25":-9999,
    "NO2":-9999
    }
  },
  {
    "type": "Feature",
    "geometry": {
       "type": "Point",
       "coordinates":  [ -121.9617,38.3525,0 ]
    },
    "properties": {
    "AQSID":"60953002",
    "SiteName":"Vacaville",
    "Status":"Active",
    "State":"CA",
    "Date":"4/25/2020",
    "Time":"4:00",
    "Ozone":30,
    "PM10":-9999,
    "PM25":10,
    "NO2":-9999
    }
  },
  {
    "type": "Feature",
    "geometry": {
       "type": "Point",
       "coordinates":  [ -120.0341,36.9533,0 ]
    },
    "properties": {
    "AQSID":"60392010",
    "SiteName":"Madera-City",
    "Status":"Active",
    "State":"CA",
    "Date":"4/25/2020",
    "Time":"4:00",
    "Ozone":37,
    "PM10":31,
    "PM25":28,
    "NO2":-9999
    }
  },
  {
    "type": "Feature",
    "geometry": {
       "type": "Point",
       "coordinates":  [ -80.546642,40.635275,0 ]
    },
    "properties": {
    "AQSID":"390290022",
    "SiteName":"East Liverpool",
    "Status":"Inactive",
    "State":"OH",
    "Date":"4/25/2020",
    "Time":"4:00",
    "Ozone":-9999,
    "PM10":-9999,
    "PM25":-9999,
    "NO2":-9999
    }
  },
  {
    "type": "Feature",
    "geometry": {
       "type": "Point",
       "coordinates":  [ -95.425,30.3503,42.7 ]
    },
    "properties": {
    "AQSID":"483390078",
    "SiteName":"Conroe Relocated C78",
    "Status":"Active",
    "State":"TX",
    "Date":"4/25/2020",
    "Time":"4:00",
    "Ozone":42,
    "PM10":-9999,
    "PM25":51,
    "NO2":-9999
    }
  },
  {
    "type": "Feature",
    "geometry": {
       "type": "Point",
       "coordinates":  [ -80.5329,40.6397,0 ]
    },
    "properties": {
    "AQSID":"390290020",
    "SiteName":"E Liverpool - Met",
    "Status":"Inactive",
    "State":"OH",
    "Date":"4/25/2020",
    "Time":"4:00",
    "Ozone":-9999,
    "PM10":-9999,
    "PM25":-9999,
    "NO2":-9999
    }
  },
  {
    "type": "Feature",
    "geometry": {
       "type": "Point",
       "coordinates":  [ -81.123519,40.931398,0 ]
    },
    "properties": {
    "AQSID":"391514005",
    "SiteName":"Alliance",
    "Status":"Active",
    "State":"OH",
    "Date":"4/25/2020",
    "Time":"4:00",
    "Ozone":36,
    "PM10":-9999,
    "PM25":-9999,
    "NO2":-9999
    }
  },
  {
    "type": "Feature",
    "geometry": {
       "type": "Point",
       "coordinates":  [ -75.9744,44.0878,0 ]
    },
    "properties": {
    "AQSID":"360450002",
    "SiteName":"Perch River",
    "Status":"Active",
    "State":"NY",
    "Date":"4/25/2020",
    "Time":"4:00",
    "Ozone":31,
    "PM10":-9999,
    "PM25":-9999,
    "NO2":-9999
    }
  },
  {
    "type": "Feature",
    "geometry": {
       "type": "Point",
       "coordinates":  [ -113.888962,45.168434,0 ]
    },
    "properties": {
    "AQSID":"160590005",
    "SiteName":"Salmon Met",
    "Status":"Inactive",
    "State":"ID",
    "Date":"4/25/2020",
    "Time":"4:00",
    "Ozone":-9999,
    "PM10":-9999,
    "PM25":-9999,
    "NO2":-9999
    }
  },
  {
    "type": "Feature",
    "geometry": {
       "type": "Point",
       "coordinates":  [ -113.890285,45.181907,1200.2 ]
    },
    "properties": {
    "AQSID":"160590004",
    "SiteName":"Salmon PM2.5",
    "Status":"Active",
    "State":"ID",
    "Date":"4/25/2020",
    "Time":"4:00",
    "Ozone":-9999,
    "PM10":-9999,
    "PM25":14,
    "NO2":-9999
    }
  },
  {
    "type": "Feature",
    "geometry": {
       "type": "Point",
       "coordinates":  [ -89.799,34.0026,133.9 ]
    },
    "properties": {
    "AQSID":"281619991",
    "SiteName":"Coffeeville",
    "Status":"Active",
    "State":"MS",
    "Date":"4/25/2020",
    "Time":"4:00",
    "Ozone":30,
    "PM10":-9999,
    "PM25":-9999,
    "NO2":-9999
    }
  },
  {
    "type": "Feature",
    "geometry": {
       "type": "Point",
       "coordinates":  [ -89.3819,36.0528,0 ]
    },
    "properties": {
    "AQSID":"470450004",
    "SiteName":"DYERTEOM",
    "Status":"Active",
    "State":"TN",
    "Date":"4/25/2020",
    "Time":"4:00",
    "Ozone":-9999,
    "PM10":-9999,
    "PM25":29,
    "NO2":-9999
    }
  },
  {
    "type": "Feature",
    "geometry": {
       "type": "Point",
       "coordinates":  [ -82.062082,35.912487,0 ]
    },
    "properties": {
    "AQSID":"371210004",
    "SiteName":"Spruce Pine",
    "Status":"Active",
    "State":"NC",
    "Date":"4/25/2020",
    "Time":"4:00",
    "Ozone":-9999,
    "PM10":-9999,
    "PM25":6,
    "NO2":-9999
    }
  },
  {
    "type": "Feature",
    "geometry": {
       "type": "Point",
       "coordinates":  [ -111.154544,32.414342,626.2 ]
    },
    "properties": {
    "AQSID":"40190020",
    "SiteName":"Rillito",
    "Status":"Active",
    "State":"AZ",
    "Date":"4/25/2020",
    "Time":"4:00",
    "Ozone":-9999,
    "PM10":65,
    "PM25":-9999,
    "NO2":-9999
    }
  },
  {
    "type": "Feature",
    "geometry": {
       "type": "Point",
       "coordinates":  [ -110.7378,32.1764,0 ]
    },
    "properties": {
    "AQSID":"40190021",
    "SiteName":"Saguaro Monument",
    "Status":"Active",
    "State":"AZ",
    "Date":"4/25/2020",
    "Time":"4:00",
    "Ozone":46,
    "PM10":-9999,
    "PM25":-9999,
    "NO2":-9999
    }
  },
  {
    "type": "Feature",
    "geometry": {
       "type": "Point",
       "coordinates":  [ -68.038933,46.69838,0 ]
    },
    "properties": {
    "AQSID":"230031008",
    "SiteName":"Presque Isle Regional Office",
    "Status":"Inactive",
    "State":"ME",
    "Date":"4/25/2020",
    "Time":"4:00",
    "Ozone":-9999,
    "PM10":-9999,
    "PM25":-9999,
    "NO2":-9999
    }
  },
  {
    "type": "Feature",
    "geometry": {
       "type": "Point",
       "coordinates":  [ -77.9939,35.3692,32.9 ]
    },
    "properties": {
    "AQSID":"371910005",
    "SiteName":"DILLARD",
    "Status":"Inactive",
    "State":"NC",
    "Date":"4/25/2020",
    "Time":"4:00",
    "Ozone":-9999,
    "PM10":-9999,
    "PM25":-9999,
    "NO2":-9999
    }
  },
  {
    "type": "Feature",
    "geometry": {
       "type": "Point",
       "coordinates":  [ -85.1622,35.1028,0 ]
    },
    "properties": {
    "AQSID":"470654003",
    "SiteName":"Eastside",
    "Status":"Active",
    "State":"TN",
    "Date":"4/25/2020",
    "Time":"4:00",
    "Ozone":19,
    "PM10":-9999,
    "PM25":-9999,
    "NO2":-9999
    }
  },
  {
    "type": "Feature",
    "geometry": {
       "type": "Point",
       "coordinates":  [ -85.2931,35.0508,0 ]
    },
    "properties": {
    "AQSID":"470654002",
    "SiteName":"Riverside",
    "Status":"Active",
    "State":"TN",
    "Date":"4/25/2020",
    "Time":"4:00",
    "Ozone":-9999,
    "PM10":-9999,
    "PM25":30,
    "NO2":-9999
    }
  },
  {
    "type": "Feature",
    "geometry": {
       "type": "Point",
       "coordinates":  [ -84.36612,39.2787,298.9 ]
    },
    "properties": {
    "AQSID":"390610006",
    "SiteName":"Sycamore",
    "Status":"Active",
    "State":"OH",
    "Date":"4/25/2020",
    "Time":"4:00",
    "Ozone":18,
    "PM10":-9999,
    "PM25":63,
    "NO2":-9999
    }
  },
  {
    "type": "Feature",
    "geometry": {
       "type": "Point",
       "coordinates":  [ -74.126083,40.67025,2.7 ]
    },
    "properties": {
    "AQSID":"340170006",
    "SiteName":"Bayonne",
    "Status":"Active",
    "State":"NJ",
    "Date":"4/25/2020",
    "Time":"4:00",
    "Ozone":14,
    "PM10":-9999,
    "PM25":-9999,
    "NO2":32
    }
  },
  {
    "type": "Feature",
    "geometry": {
       "type": "Point",
       "coordinates":  [ -91.3153,30.2211,0 ]
    },
    "properties": {
    "AQSID":"220470009",
    "SiteName":"Bayou Plaquemine",
    "Status":"Active",
    "State":"LA",
    "Date":"4/25/2020",
    "Time":"4:00",
    "Ozone":26,
    "PM10":-9999,
    "PM25":-9999,
    "NO2":-9999
    }
  },
  {
    "type": "Feature",
    "geometry": {
       "type": "Point",
       "coordinates":  [ -123.0535,43.7995,198.3 ]
    },
    "properties": {
    "AQSID":"410399004",
    "SiteName":"Cottage Grove City Shops",
    "Status":"Active",
    "State":"OR",
    "Date":"4/25/2020",
    "Time":"4:00",
    "Ozone":-9999,
    "PM10":-9999,
    "PM25":22,
    "NO2":-9999
    }
  },
  {
    "type": "Feature",
    "geometry": {
       "type": "Point",
       "coordinates":  [ -91.418297,30.399401,0 ]
    },
    "properties": {
    "AQSID":"220470007",
    "SiteName":"Grosse Tete",
    "Status":"Inactive",
    "State":"LA",
    "Date":"4/25/2020",
    "Time":"4:00",
    "Ozone":-9999,
    "PM10":-9999,
    "PM25":-9999,
    "NO2":-9999
    }
  },
  {
    "type": "Feature",
    "geometry": {
       "type": "Point",
       "coordinates":  [ -72.5236,42.4006,0 ]
    },
    "properties": {
    "AQSID":"250150103",
    "SiteName":"AMHERST",
    "Status":"Inactive",
    "State":"MA",
    "Date":"4/25/2020",
    "Time":"4:00",
    "Ozone":-9999,
    "PM10":-9999,
    "PM25":-9999,
    "NO2":-9999
    }
  },
  {
    "type": "Feature",
    "geometry": {
       "type": "Point",
       "coordinates":  [ -115.766003,40.838329,1560.1 ]
    },
    "properties": {
    "AQSID":"320070005",
    "SiteName":"Elko",
    "Status":"Active",
    "State":"NV",
    "Date":"4/25/2020",
    "Time":"4:00",
    "Ozone":-9999,
    "PM10":18,
    "PM25":-9999,
    "NO2":-9999
    }
  },
  {
    "type": "Feature",
    "geometry": {
       "type": "Point",
       "coordinates":  [ -90.344494,39.101439,0 ]
    },
    "properties": {
    "AQSID":"170830117",
    "SiteName":"JERSEYVL",
    "Status":"Active",
    "State":"IL",
    "Date":"4/25/2020",
    "Time":"4:00",
    "Ozone":39,
    "PM10":-9999,
    "PM25":8,
    "NO2":-9999
    }
  },
  {
    "type": "Feature",
    "geometry": {
       "type": "Point",
       "coordinates":  [ -84.69086,39.21494,0 ]
    },
    "properties": {
    "AQSID":"390610010",
    "SiteName":"Colerain",
    "Status":"Active",
    "State":"OH",
    "Date":"4/25/2020",
    "Time":"4:00",
    "Ozone":6,
    "PM10":-9999,
    "PM25":84,
    "NO2":-9999
    }
  },
  {
    "type": "Feature",
    "geometry": {
       "type": "Point",
       "coordinates":  [ -91.207199,30.5872,0 ]
    },
    "properties": {
    "AQSID":"220331001",
    "SiteName":"Baker",
    "Status":"Inactive",
    "State":"LA",
    "Date":"4/25/2020",
    "Time":"4:00",
    "Ozone":-9999,
    "PM10":-9999,
    "PM25":-9999,
    "NO2":-9999
    }
  },
  {
    "type": "Feature",
    "geometry": {
       "type": "Point",
       "coordinates":  [ -121.26498,38.74643,0 ]
    },
    "properties": {
    "AQSID":"60610006",
    "SiteName":"Roseville - N.Sunrise/Douglas",
    "Status":"Active",
    "State":"CA",
    "Date":"4/25/2020",
    "Time":"4:00",
    "Ozone":20,
    "PM10":33,
    "PM25":26,
    "NO2":20
    }
  },
  {
    "type": "Feature",
    "geometry": {
       "type": "Point",
       "coordinates":  [ -120.9528,39.1003,0 ]
    },
    "properties": {
    "AQSID":"60610004",
    "SiteName":"Colfax",
    "Status":"Active",
    "State":"CA",
    "Date":"4/25/2020",
    "Time":"4:00",
    "Ozone":35,
    "PM10":-9999,
    "PM25":22,
    "NO2":-9999
    }
  },
  {
    "type": "Feature",
    "geometry": {
       "type": "Point",
       "coordinates":  [ -121.103897,38.937801,0 ]
    },
    "properties": {
    "AQSID":"60610002",
    "SiteName":"Auburn",
    "Status":"Active",
    "State":"CA",
    "Date":"4/25/2020",
    "Time":"4:00",
    "Ozone":34,
    "PM10":-9999,
    "PM25":11,
    "NO2":-9999
    }
  },
  {
    "type": "Feature",
    "geometry": {
       "type": "Point",
       "coordinates":  [ -89.69864,37.70264,151.6 ]
    },
    "properties": {
    "AQSID":"291570001",
    "SiteName":"Farrar",
    "Status":"Active",
    "State":"MO",
    "Date":"4/25/2020",
    "Time":"4:00",
    "Ozone":40,
    "PM10":-9999,
    "PM25":-9999,
    "NO2":-9999
    }
  },
  {
    "type": "Feature",
    "geometry": {
       "type": "Point",
       "coordinates":  [ -97.1933,33.1944,390.4 ]
    },
    "properties": {
    "AQSID":"481210034",
    "SiteName":"Denton Airport South C56",
    "Status":"Active",
    "State":"TX",
    "Date":"4/25/2020",
    "Time":"4:00",
    "Ozone":41,
    "PM10":-9999,
    "PM25":13,
    "NO2":-9999
    }
  },
  {
    "type": "Feature",
    "geometry": {
       "type": "Point",
       "coordinates":  [ -111.894167,40.598056,0 ]
    },
    "properties": {
    "AQSID":"1.1349E+11",
    "SiteName":"Copper View",
    "Status":"Active",
    "State":"UT",
    "Date":"4/25/2020",
    "Time":"4:00",
    "Ozone":28,
    "PM10":-9999,
    "PM25":21,
    "NO2":-9999
    }
  },
  {
    "type": "Feature",
    "geometry": {
       "type": "Point",
       "coordinates":  [ -86.3111,43.2781,390.4 ]
    },
    "properties": {
    "AQSID":"261210039",
    "SiteName":"MUSKEGON",
    "Status":"Active",
    "State":"MI",
    "Date":"4/25/2020",
    "Time":"4:00",
    "Ozone":19,
    "PM10":-9999,
    "PM25":-9999,
    "NO2":-9999
    }
  },
  {
    "type": "Feature",
    "geometry": {
       "type": "Point",
       "coordinates":  [ -106.5483,35.2994,1525 ]
    },
    "properties": {
    "AQSID":"350431001",
    "SiteName":"Bernalillo",
    "Status":"Active",
    "State":"NM",
    "Date":"4/25/2020",
    "Time":"4:00",
    "Ozone":42,
    "PM10":-9999,
    "PM25":-9999,
    "NO2":-9999
    }
  },
  {
    "type": "Feature",
    "geometry": {
       "type": "Point",
       "coordinates":  [ -77.593597,37.358898,0 ]
    },
    "properties": {
    "AQSID":"510410004",
    "SiteName":"BEACH ROAD",
    "Status":"Active",
    "State":"VA",
    "Date":"4/25/2020",
    "Time":"4:00",
    "Ozone":22,
    "PM10":-9999,
    "PM25":-9999,
    "NO2":-9999
    }
  },
  {
    "type": "Feature",
    "geometry": {
       "type": "Point",
       "coordinates":  [ -68.016195,46.682299,0 ]
    },
    "properties": {
    "AQSID":"230031011",
    "SiteName":"Presque Isle Riverside",
    "Status":"Active",
    "State":"ME",
    "Date":"4/25/2020",
    "Time":"4:00",
    "Ozone":-9999,
    "PM10":12,
    "PM25":11,
    "NO2":-9999
    }
  },
  {
    "type": "Feature",
    "geometry": {
       "type": "Point",
       "coordinates":  [ -106.649399,35.238098,1644 ]
    },
    "properties": {
    "AQSID":"350431003",
    "SiteName":"Rio Rancho Senio",
    "Status":"Inactive",
    "State":"NM",
    "Date":"4/25/2020",
    "Time":"4:00",
    "Ozone":-9999,
    "PM10":-9999,
    "PM25":-9999,
    "NO2":-9999
    }
  },
  {
    "type": "Feature",
    "geometry": {
       "type": "Point",
       "coordinates":  [ -114.158889,46.243621,0 ]
    },
    "properties": {
    "AQSID":"300810007",
    "SiteName":"Hamilton PS 46",
    "Status":"Active",
    "State":"MT",
    "Date":"4/25/2020",
    "Time":"4:00",
    "Ozone":-9999,
    "PM10":-9999,
    "PM25":4,
    "NO2":-9999
    }
  },
  {
    "type": "Feature",
    "geometry": {
       "type": "Point",
       "coordinates":  [ -116.368965,48.705551,0 ]
    },
    "properties": {
    "AQSID":"160210002",
    "SiteName":"Boundary County",
    "Status":"Inactive",
    "State":"ID",
    "Date":"4/25/2020",
    "Time":"4:00",
    "Ozone":-9999,
    "PM10":-9999,
    "PM25":-9999,
    "NO2":-9999
    }
  },
  {
    "type": "Feature",
    "geometry": {
       "type": "Point",
       "coordinates":  [ -89.8094,39.3961,0 ]
    },
    "properties": {
    "AQSID":"171170002",
    "SiteName":"NILWOOD",
    "Status":"Active",
    "State":"IL",
    "Date":"4/25/2020",
    "Time":"4:00",
    "Ozone":33,
    "PM10":-9999,
    "PM25":-9999,
    "NO2":-9999
    }
  },
  {
    "type": "Feature",
    "geometry": {
       "type": "Point",
       "coordinates":  [ -104.52277,41.08536,1741.9 ]
    },
    "properties": {
    "AQSID":"8.4056E+11",
    "SiteName":"Laramie County Mobile",
    "Status":"Active",
    "State":"WY",
    "Date":"4/25/2020",
    "Time":"4:00",
    "Ozone":35,
    "PM10":6,
    "PM25":4,
    "NO2":-9999
    }
  },
  {
    "type": "Feature",
    "geometry": {
       "type": "Point",
       "coordinates":  [ -96.913552,32.879107,0 ]
    },
    "properties": {
    "AQSID":"481131505",
    "SiteName":"N/A",
    "Status":"Active",
    "State":"TX",
    "Date":"4/25/2020",
    "Time":"4:00",
    "Ozone":-9999,
    "PM10":-9999,
    "PM25":-9999,
    "NO2":-9999
    }
  },
  {
    "type": "Feature",
    "geometry": {
       "type": "Point",
       "coordinates":  [ -92.3283,34.6811,0 ]
    },
    "properties": {
    "AQSID":"51191008",
    "SiteName":"ADEQ-DSR",
    "Status":"Active",
    "State":"AR",
    "Date":"4/25/2020",
    "Time":"4:00",
    "Ozone":-9999,
    "PM10":-9999,
    "PM25":36,
    "NO2":-9999
    }
  },
  {
    "type": "Feature",
    "geometry": {
       "type": "Point",
       "coordinates":  [ -117.415831,33.999449,78.7 ]
    },
    "properties": {
    "AQSID":"60658001",
    "SiteName":"Riverside - Rubidoux",
    "Status":"Active",
    "State":"CA",
    "Date":"4/25/2020",
    "Time":"4:00",
    "Ozone":47,
    "PM10":52,
    "PM25":41,
    "NO2":18
    }
  },
  {
    "type": "Feature",
    "geometry": {
       "type": "Point",
       "coordinates":  [ -92.2594,34.8306,0 ]
    },
    "properties": {
    "AQSID":"51191002",
    "SiteName":"NLRAP",
    "Status":"Active",
    "State":"AR",
    "Date":"4/25/2020",
    "Time":"4:00",
    "Ozone":39,
    "PM10":-9999,
    "PM25":-9999,
    "NO2":-9999
    }
  },
  {
    "type": "Feature",
    "geometry": {
       "type": "Point",
       "coordinates":  [ -117.4925,33.996387,230.9 ]
    },
    "properties": {
    "AQSID":"60658005",
    "SiteName":"Mira Loma - Van Buren",
    "Status":"Active",
    "State":"CA",
    "Date":"4/25/2020",
    "Time":"4:00",
    "Ozone":39,
    "PM10":52,
    "PM25":56,
    "NO2":22
    }
  },
  {
    "type": "Feature",
    "geometry": {
       "type": "Point",
       "coordinates":  [ -96.800599,32.630011,195.2 ]
    },
    "properties": {
    "AQSID":"481131500",
    "SiteName":"Lancaster Cedardale C1500",
    "Status":"Active",
    "State":"TX",
    "Date":"4/25/2020",
    "Time":"4:00",
    "Ozone":-9999,
    "PM10":-9999,
    "PM25":-9999,
    "NO2":-9999
    }
  },
  {
    "type": "Feature",
    "geometry": {
       "type": "Point",
       "coordinates":  [ -121.4406,37.6825,0 ]
    },
    "properties": {
    "AQSID":"60773005",
    "SiteName":"TracyAP",
    "Status":"Active",
    "State":"CA",
    "Date":"4/25/2020",
    "Time":"4:00",
    "Ozone":40,
    "PM10":16,
    "PM25":30,
    "NO2":1
    }
  },
  {
    "type": "Feature",
    "geometry": {
       "type": "Point",
       "coordinates":  [ -122.880266,42.33155,0 ]
    },
    "properties": {
    "AQSID":"410292129",
    "SiteName":"Medford Welch & Jackson",
    "Status":"Active",
    "State":"OR",
    "Date":"4/25/2020",
    "Time":"4:00",
    "Ozone":-9999,
    "PM10":-9999,
    "PM25":31,
    "NO2":-9999
    }
  },
  {
    "type": "Feature",
    "geometry": {
       "type": "Point",
       "coordinates":  [ -155.9133,19.5097,517.3 ]
    },
    "properties": {
    "AQSID":"150011012",
    "SiteName":"Kona",
    "Status":"Active",
    "State":"HI",
    "Date":"4/25/2020",
    "Time":"4:00",
    "Ozone":-9999,
    "PM10":-9999,
    "PM25":0,
    "NO2":-9999
    }
  },
  {
    "type": "Feature",
    "geometry": {
       "type": "Point",
       "coordinates":  [ -117.614764,46.474438,0 ]
    },
    "properties": {
    "AQSID":"8.4053E+11",
    "SiteName":"Mobile-Pomeroy",
    "Status":"Active",
    "State":"WA",
    "Date":"4/25/2020",
    "Time":"4:00",
    "Ozone":-9999,
    "PM10":-9999,
    "PM25":-9999,
    "NO2":-9999
    }
  },
  {
    "type": "Feature",
    "geometry": {
       "type": "Point",
       "coordinates":  [ -107.6022,38.8763,0 ]
    },
    "properties": {
    "AQSID":"8.4008E+11",
    "SiteName":"Paonia",
    "Status":"Active",
    "State":"CO",
    "Date":"4/25/2020",
    "Time":"4:00",
    "Ozone":31,
    "PM10":4,
    "PM25":17,
    "NO2":-9999
    }
  },
  {
    "type": "Feature",
    "geometry": {
       "type": "Point",
       "coordinates":  [ -120.433601,37.2817,0 ]
    },
    "properties": {
    "AQSID":"60470003",
    "SiteName":"Merced - S. Coffee Ave",
    "Status":"Active",
    "State":"CA",
    "Date":"4/25/2020",
    "Time":"4:00",
    "Ozone":32,
    "PM10":-9999,
    "PM25":35,
    "NO2":6
    }
  },
  {
    "type": "Feature",
    "geometry": {
       "type": "Point",
       "coordinates":  [ -112.159874,33.29015,323 ]
    },
    "properties": {
    "AQSID":"40137003",
    "SiteName":"StJohns",
    "Status":"Active",
    "State":"AZ",
    "Date":"4/25/2020",
    "Time":"4:00",
    "Ozone":45,
    "PM10":19,
    "PM25":-9999,
    "NO2":-9999
    }
  },
  {
    "type": "Feature",
    "geometry": {
       "type": "Point",
       "coordinates":  [ -83.6089,35.6967,793.3 ]
    },
    "properties": {
    "AQSID":"471550101",
    "SiteName":"Cove Mountain - GSMNP",
    "Status":"Active",
    "State":"TN",
    "Date":"4/25/2020",
    "Time":"4:00",
    "Ozone":39,
    "PM10":-9999,
    "PM25":-9999,
    "NO2":-9999
    }
  },
  {
    "type": "Feature",
    "geometry": {
       "type": "Point",
       "coordinates":  [ -83.4981,35.562801,1243.5 ]
    },
    "properties": {
    "AQSID":"471550102",
    "SiteName":"Clingmans Dome - GSMNP",
    "Status":"Active",
    "State":"TN",
    "Date":"4/25/2020",
    "Time":"4:00",
    "Ozone":-9999,
    "PM10":-9999,
    "PM25":-9999,
    "NO2":-9999
    }
  },
  {
    "type": "Feature",
    "geometry": {
       "type": "Point",
       "coordinates":  [ -86.292261,39.263914,201 ]
    },
    "properties": {
    "AQSID":"180130001",
    "SiteName":"Helmsburg",
    "Status":"Active",
    "State":"IN",
    "Date":"4/25/2020",
    "Time":"4:00",
    "Ozone":13,
    "PM10":-9999,
    "PM25":-9999,
    "NO2":-9999
    }
  },
  {
    "type": "Feature",
    "geometry": {
       "type": "Point",
       "coordinates":  [ -101.43967,35.676128,945.8 ]
    },
    "properties": {
    "AQSID":"482331073",
    "SiteName":"Borger FM 1559",
    "Status":"Active",
    "State":"TX",
    "Date":"4/25/2020",
    "Time":"4:00",
    "Ozone":-9999,
    "PM10":-9999,
    "PM25":-9999,
    "NO2":-9999
    }
  },
  {
    "type": "Feature",
    "geometry": {
       "type": "Point",
       "coordinates":  [ -89.0622,33.6636,93.9 ]
    },
    "properties": {
    "AQSID":"281551001",
    "SiteName":"Natchez Trace Parkway - Dancy Rgr Sta.",
    "Status":"Inactive",
    "State":"MS",
    "Date":"4/25/2020",
    "Time":"4:00",
    "Ozone":-9999,
    "PM10":-9999,
    "PM25":-9999,
    "NO2":-9999
    }
  },
  {
    "type": "Feature",
    "geometry": {
       "type": "Point",
       "coordinates":  [ -91.1283,30.1975,0 ]
    },
    "properties": {
    "AQSID":"220470012",
    "SiteName":"Carville",
    "Status":"Active",
    "State":"LA",
    "Date":"4/25/2020",
    "Time":"4:00",
    "Ozone":34,
    "PM10":-9999,
    "PM25":-9999,
    "NO2":-9999
    }
  },
  {
    "type": "Feature",
    "geometry": {
       "type": "Point",
       "coordinates":  [ -96.7861,33.1325,0 ]
    },
    "properties": {
    "AQSID":"480850005",
    "SiteName":"Frisco C31",
    "Status":"Active",
    "State":"TX",
    "Date":"4/25/2020",
    "Time":"4:00",
    "Ozone":41,
    "PM10":-9999,
    "PM25":-9999,
    "NO2":-9999
    }
  },
  {
    "type": "Feature",
    "geometry": {
       "type": "Point",
       "coordinates":  [ -90.2728,30.0411,0 ]
    },
    "properties": {
    "AQSID":"220511001",
    "SiteName":"Kenner",
    "Status":"Active",
    "State":"LA",
    "Date":"4/25/2020",
    "Time":"4:00",
    "Ozone":29,
    "PM10":-9999,
    "PM25":26,
    "NO2":-9999
    }
  },
  {
    "type": "Feature",
    "geometry": {
       "type": "Point",
       "coordinates":  [ -94.7319,38.1358,0 ]
    },
    "properties": {
    "AQSID":"201070002",
    "SiteName":"Minecrek",
    "Status":"Inactive",
    "State":"KS",
    "Date":"4/25/2020",
    "Time":"4:00",
    "Ozone":-9999,
    "PM10":-9999,
    "PM25":-9999,
    "NO2":-9999
    }
  },
  {
    "type": "Feature",
    "geometry": {
       "type": "Point",
       "coordinates":  [ -96.828809,33.144662,195.2 ]
    },
    "properties": {
    "AQSID":"480850009",
    "SiteName":"Frisco Eubanks C1010",
    "Status":"Active",
    "State":"TX",
    "Date":"4/25/2020",
    "Time":"4:00",
    "Ozone":-9999,
    "PM10":-9999,
    "PM25":-9999,
    "NO2":-9999
    }
  },
  {
    "type": "Feature",
    "geometry": {
       "type": "Point",
       "coordinates":  [ -78.991941,35.002197,0 ]
    },
    "properties": {
    "AQSID":"370510010",
    "SiteName":"Honeycutt",
    "Status":"Active",
    "State":"NC",
    "Date":"4/25/2020",
    "Time":"4:00",
    "Ozone":29,
    "PM10":-9999,
    "PM25":-9999,
    "NO2":-9999
    }
  },
  {
    "type": "Feature",
    "geometry": {
       "type": "Point",
       "coordinates":  [ -76.7314,36.6675,0 ]
    },
    "properties": {
    "AQSID":"518000005",
    "SiteName":"HOLLAND",
    "Status":"Active",
    "State":"VA",
    "Date":"4/25/2020",
    "Time":"4:00",
    "Ozone":27,
    "PM10":-9999,
    "PM25":-9999,
    "NO2":-9999
    }
  },
  {
    "type": "Feature",
    "geometry": {
       "type": "Point",
       "coordinates":  [ -76.438599,36.903301,0 ]
    },
    "properties": {
    "AQSID":"518000004",
    "SiteName":"TIDEWATER COMM. COLLEGE",
    "Status":"Active",
    "State":"VA",
    "Date":"4/25/2020",
    "Time":"4:00",
    "Ozone":29,
    "PM10":-9999,
    "PM25":-9999,
    "NO2":-9999
    }
  },
  {
    "type": "Feature",
    "geometry": {
       "type": "Point",
       "coordinates":  [ -117.296066,45.426351,1163.6 ]
    },
    "properties": {
    "AQSID":"410630001",
    "SiteName":"Enterprise - US Forest Service",
    "Status":"Active",
    "State":"OR",
    "Date":"4/25/2020",
    "Time":"4:00",
    "Ozone":-9999,
    "PM10":-9999,
    "PM25":33,
    "NO2":-9999
    }
  },
  {
    "type": "Feature",
    "geometry": {
       "type": "Point",
       "coordinates":  [ -87.7161,43.665,0 ]
    },
    "properties": {
    "AQSID":"551170006",
    "SiteName":"SHEBOYGAN",
    "Status":"Active",
    "State":"WI",
    "Date":"4/25/2020",
    "Time":"4:00",
    "Ozone":34,
    "PM10":-9999,
    "PM25":-9999,
    "NO2":-9999
    }
  },
  {
    "type": "Feature",
    "geometry": {
       "type": "Point",
       "coordinates":  [ -81.6367,28.3478,0 ]
    },
    "properties": {
    "AQSID":"120972002",
    "SiteName":"Osceola Co. Fire Station - Four Corners",
    "Status":"Active",
    "State":"FL",
    "Date":"4/25/2020",
    "Time":"4:00",
    "Ozone":33,
    "PM10":-9999,
    "PM25":-9999,
    "NO2":-9999
    }
  },
  {
    "type": "Feature",
    "geometry": {
       "type": "Point",
       "coordinates":  [ -120.545,46.9936,500.2 ]
    },
    "properties": {
    "AQSID":"530370002",
    "SiteName":"Ellensburg-Ruby St",
    "Status":"Active",
    "State":"WA",
    "Date":"4/25/2020",
    "Time":"4:00",
    "Ozone":-9999,
    "PM10":-9999,
    "PM25":-9999,
    "NO2":-9999
    }
  },
  {
    "type": "Feature",
    "geometry": {
       "type": "Point",
       "coordinates":  [ -79.744698,34.285599,38.7 ]
    },
    "properties": {
    "AQSID":"450310003",
    "SiteName":"Pee Dee",
    "Status":"Active",
    "State":"SC",
    "Date":"4/25/2020",
    "Time":"4:00",
    "Ozone":19,
    "PM10":-9999,
    "PM25":-9999,
    "NO2":-9999
    }
  },
  {
    "type": "Feature",
    "geometry": {
       "type": "Point",
       "coordinates":  [ -89.8319,35.3772,0 ]
    },
    "properties": {
    "AQSID":"471571004",
    "SiteName":"ORGILL",
    "Status":"Active",
    "State":"TN",
    "Date":"4/25/2020",
    "Time":"4:00",
    "Ozone":25,
    "PM10":-9999,
    "PM25":-9999,
    "NO2":-9999
    }
  },
  {
    "type": "Feature",
    "geometry": {
       "type": "Point",
       "coordinates":  [ -95.4736,29.0436,0 ]
    },
    "properties": {
    "AQSID":"480391016",
    "SiteName":"Lake Jackson C1016",
    "Status":"Active",
    "State":"TX",
    "Date":"4/25/2020",
    "Time":"4:00",
    "Ozone":33,
    "PM10":-9999,
    "PM25":-9999,
    "NO2":-9999
    }
  },
  {
    "type": "Feature",
    "geometry": {
       "type": "Point",
       "coordinates":  [ -112.0131,46.6588,1139.8 ]
    },
    "properties": {
    "AQSID":"300490026",
    "SiteName":"Rossiter Pump House",
    "Status":"Active",
    "State":"MT",
    "Date":"4/25/2020",
    "Time":"4:00",
    "Ozone":-9999,
    "PM10":-9999,
    "PM25":24,
    "NO2":-9999
    }
  },
  {
    "type": "Feature",
    "geometry": {
       "type": "Point",
       "coordinates":  [ -98.3983,34.514999,332.5 ]
    },
    "properties": {
    "AQSID":"400310649",
    "SiteName":"Lawton South",
    "Status":"Inactive",
    "State":"OK",
    "Date":"4/25/2020",
    "Time":"4:00",
    "Ozone":-9999,
    "PM10":-9999,
    "PM25":-9999,
    "NO2":-9999
    }
  },
  {
    "type": "Feature",
    "geometry": {
       "type": "Point",
       "coordinates":  [ -85.3803,40.9606,0 ]
    },
    "properties": {
    "AQSID":"180690002",
    "SiteName":"Roanoke Elem. School",
    "Status":"Inactive",
    "State":"IN",
    "Date":"4/25/2020",
    "Time":"4:00",
    "Ozone":-9999,
    "PM10":-9999,
    "PM25":-9999,
    "NO2":-9999
    }
  },
  {
    "type": "Feature",
    "geometry": {
       "type": "Point",
       "coordinates":  [ -88.1411,30.4744,0 ]
    },
    "properties": {
    "AQSID":"10972005",
    "SiteName":"BAYROAD",
    "Status":"Active",
    "State":"AL",
    "Date":"4/25/2020",
    "Time":"4:00",
    "Ozone":15,
    "PM10":-9999,
    "PM25":-9999,
    "NO2":-9999
    }
  },
  {
    "type": "Feature",
    "geometry": {
       "type": "Point",
       "coordinates":  [ -119.840051,39.645288,0 ]
    },
    "properties": {
    "AQSID":"320312009",
    "SiteName":"Lemmon Valley",
    "Status":"Active",
    "State":"NV",
    "Date":"4/25/2020",
    "Time":"4:00",
    "Ozone":35,
    "PM10":-9999,
    "PM25":-9999,
    "NO2":-9999
    }
  },
  {
    "type": "Feature",
    "geometry": {
       "type": "Point",
       "coordinates":  [ -72.902685,41.301288,0 ]
    },
    "properties": {
    "AQSID":"90090027",
    "SiteName":"New Haven - Criscuolo Park",
    "Status":"Active",
    "State":"CT",
    "Date":"4/25/2020",
    "Time":"4:00",
    "Ozone":7,
    "PM10":17,
    "PM25":52,
    "NO2":29
    }
  },
  {
    "type": "Feature",
    "geometry": {
       "type": "Point",
       "coordinates":  [ -89.0497,30.39,0 ]
    },
    "properties": {
    "AQSID":"280470008",
    "SiteName":"GPORT YC",
    "Status":"Active",
    "State":"MS",
    "Date":"4/25/2020",
    "Time":"4:00",
    "Ozone":40,
    "PM10":-9999,
    "PM25":15,
    "NO2":-9999
    }
  },
  {
    "type": "Feature",
    "geometry": {
       "type": "Point",
       "coordinates":  [ -112.0187,41.492802,1342.6 ]
    },
    "properties": {
    "AQSID":"490030003",
    "SiteName":"Brigham City",
    "Status":"Inactive",
    "State":"UT",
    "Date":"4/25/2020",
    "Time":"4:00",
    "Ozone":-9999,
    "PM10":-9999,
    "PM25":-9999,
    "NO2":-9999
    }
  },
  {
    "type": "Feature",
    "geometry": {
       "type": "Point",
       "coordinates":  [ -119.956741,39.250437,0 ]
    },
    "properties": {
    "AQSID":"320312002",
    "SiteName":"Incline",
    "Status":"Active",
    "State":"NV",
    "Date":"4/25/2020",
    "Time":"4:00",
    "Ozone":27,
    "PM10":-9999,
    "PM25":-9999,
    "NO2":-9999
    }
  },
  {
    "type": "Feature",
    "geometry": {
       "type": "Point",
       "coordinates":  [ -90.624016,41.512032,0 ]
    },
    "properties": {
    "AQSID":"191630020",
    "SiteName":"Davenport, Hayes School",
    "Status":"Active",
    "State":"IA",
    "Date":"4/25/2020",
    "Time":"4:00",
    "Ozone":-9999,
    "PM10":-9999,
    "PM25":-9999,
    "NO2":-9999
    }
  },
  {
    "type": "Feature",
    "geometry": {
       "type": "Point",
       "coordinates":  [ -114.020549,46.842297,0 ]
    },
    "properties": {
    "AQSID":"300630024",
    "SiteName":"Missoula Boyd Park",
    "Status":"Active",
    "State":"MT",
    "Date":"4/25/2020",
    "Time":"4:00",
    "Ozone":26,
    "PM10":13,
    "PM25":20,
    "NO2":-9999
    }
  },
  {
    "type": "Feature",
    "geometry": {
       "type": "Point",
       "coordinates":  [ -86.504747,39.159372,250.1 ]
    },
    "properties": {
    "AQSID":"181050003",
    "SiteName":"Bloomington - Binford",
    "Status":"Active",
    "State":"IN",
    "Date":"4/25/2020",
    "Time":"4:00",
    "Ozone":-9999,
    "PM10":-9999,
    "PM25":20,
    "NO2":-9999
    }
  },
  {
    "type": "Feature",
    "geometry": {
       "type": "Point",
       "coordinates":  [ -112.0353,46.6036,1200.8 ]
    },
    "properties": {
    "AQSID":"300490018",
    "SiteName":"LINSCHL",
    "Status":"Inactive",
    "State":"MT",
    "Date":"4/25/2020",
    "Time":"4:00",
    "Ozone":-9999,
    "PM10":-9999,
    "PM25":-9999,
    "NO2":-9999
    }
  },
  {
    "type": "Feature",
    "geometry": {
       "type": "Point",
       "coordinates":  [ -98.428802,34.632999,362 ]
    },
    "properties": {
    "AQSID":"400310651",
    "SiteName":"Lawton North",
    "Status":"Active",
    "State":"OK",
    "Date":"4/25/2020",
    "Time":"4:00",
    "Ozone":37,
    "PM10":6,
    "PM25":11,
    "NO2":-9999
    }
  },
  {
    "type": "Feature",
    "geometry": {
       "type": "Point",
       "coordinates":  [ -81.458889,41.537041,0 ]
    },
    "properties": {
    "AQSID":"390355002",
    "SiteName":"Mayfield",
    "Status":"Active",
    "State":"OH",
    "Date":"4/25/2020",
    "Time":"4:00",
    "Ozone":36,
    "PM10":-9999,
    "PM25":-9999,
    "NO2":-9999
    }
  },
  {
    "type": "Feature",
    "geometry": {
       "type": "Point",
       "coordinates":  [ -97.928856,29.862282,183 ]
    },
    "properties": {
    "AQSID":"482091675",
    "SiteName":"San Marcos Staples Rd C1675",
    "Status":"Active",
    "State":"TX",
    "Date":"4/25/2020",
    "Time":"4:00",
    "Ozone":-9999,
    "PM10":-9999,
    "PM25":-9999,
    "NO2":-9999
    }
  },
  {
    "type": "Feature",
    "geometry": {
       "type": "Point",
       "coordinates":  [ -97.845627,36.512293,0 ]
    },
    "properties": {
    "AQSID":"400470555",
    "SiteName":"Kremlin",
    "Status":"Active",
    "State":"OK",
    "Date":"4/25/2020",
    "Time":"4:00",
    "Ozone":-9999,
    "PM10":-9999,
    "PM25":-9999,
    "NO2":-9999
    }
  },
  {
    "type": "Feature",
    "geometry": {
       "type": "Point",
       "coordinates":  [ -109.68737,40.054848,0 ]
    },
    "properties": {
    "AQSID":"490472003",
    "SiteName":"Ouray",
    "Status":"Active",
    "State":"UT",
    "Date":"4/25/2020",
    "Time":"4:00",
    "Ozone":46,
    "PM10":-9999,
    "PM25":-9999,
    "NO2":0
    }
  },
  {
    "type": "Feature",
    "geometry": {
       "type": "Point",
       "coordinates":  [ -109.35321,40.204433,0 ]
    },
    "properties": {
    "AQSID":"490472002",
    "SiteName":"Redwash",
    "Status":"Active",
    "State":"UT",
    "Date":"4/25/2020",
    "Time":"4:00",
    "Ozone":44,
    "PM10":-9999,
    "PM25":-9999,
    "NO2":0
    }
  },
  {
    "type": "Feature",
    "geometry": {
       "type": "Point",
       "coordinates":  [ -114.224273,47.012907,0 ]
    },
    "properties": {
    "AQSID":"300630037",
    "SiteName":"French Town - Beckwith",
    "Status":"Active",
    "State":"MT",
    "Date":"4/25/2020",
    "Time":"4:00",
    "Ozone":-9999,
    "PM10":-9999,
    "PM25":29,
    "NO2":-9999
    }
  },
  {
    "type": "Feature",
    "geometry": {
       "type": "Point",
       "coordinates":  [ -113.476182,47.17563,0 ]
    },
    "properties": {
    "AQSID":"300630038",
    "SiteName":"Seeley Elementary School",
    "Status":"Active",
    "State":"MT",
    "Date":"4/25/2020",
    "Time":"4:00",
    "Ozone":-9999,
    "PM10":-9999,
    "PM25":51,
    "NO2":-9999
    }
  },
  {
    "type": "Feature",
    "geometry": {
       "type": "Point",
       "coordinates":  [ -111.987164,46.8505,0 ]
    },
    "properties": {
    "AQSID":"300490004",
    "SiteName":"NCORE",
    "Status":"Active",
    "State":"MT",
    "Date":"4/25/2020",
    "Time":"4:00",
    "Ozone":37,
    "PM10":-9999,
    "PM25":0,
    "NO2":-9999
    }
  },
  {
    "type": "Feature",
    "geometry": {
       "type": "Point",
       "coordinates":  [ -97.4883,35.32,0 ]
    },
    "properties": {
    "AQSID":"400270049",
    "SiteName":"Moore",
    "Status":"Active",
    "State":"OK",
    "Date":"4/25/2020",
    "Time":"4:00",
    "Ozone":34,
    "PM10":8,
    "PM25":16,
    "NO2":-9999
    }
  },
  {
    "type": "Feature",
    "geometry": {
       "type": "Point",
       "coordinates":  [ -80.395039,35.551868,240 ]
    },
    "properties": {
    "AQSID":"371590021",
    "SiteName":"ROCKWELL",
    "Status":"Active",
    "State":"NC",
    "Date":"4/25/2020",
    "Time":"4:00",
    "Ozone":33,
    "PM10":-9999,
    "PM25":-9999,
    "NO2":-9999
    }
  },
  {
    "type": "Feature",
    "geometry": {
       "type": "Point",
       "coordinates":  [ -80.6986,35.5347,269.9 ]
    },
    "properties": {
    "AQSID":"371590022",
    "SiteName":"ENOCH",
    "Status":"Inactive",
    "State":"NC",
    "Date":"4/25/2020",
    "Time":"4:00",
    "Ozone":-9999,
    "PM10":-9999,
    "PM25":-9999,
    "NO2":-9999
    }
  },
  {
    "type": "Feature",
    "geometry": {
       "type": "Point",
       "coordinates":  [ -86.6667,30.4266,91.5 ]
    },
    "properties": {
    "AQSID":"MMOAQ1005",
    "SiteName":"Fort Walton",
    "Status":"Inactive",
    "State":"MM",
    "Date":"4/25/2020",
    "Time":"4:00",
    "Ozone":-9999,
    "PM10":-9999,
    "PM25":-9999,
    "NO2":-9999
    }
  },
  {
    "type": "Feature",
    "geometry": {
       "type": "Point",
       "coordinates":  [ -75.8464,41.2658,0 ]
    },
    "properties": {
    "AQSID":"420791101",
    "SiteName":"Wilkes-Barre",
    "Status":"Active",
    "State":"PA",
    "Date":"4/25/2020",
    "Time":"4:00",
    "Ozone":6,
    "PM10":-9999,
    "PM25":-9999,
    "NO2":-9999
    }
  },
  {
    "type": "Feature",
    "geometry": {
       "type": "Point",
       "coordinates":  [ -76.0033,41.2092,0 ]
    },
    "properties": {
    "AQSID":"420791100",
    "SiteName":"NANT",
    "Status":"Inactive",
    "State":"PA",
    "Date":"4/25/2020",
    "Time":"4:00",
    "Ozone":-9999,
    "PM10":-9999,
    "PM25":-9999,
    "NO2":-9999
    }
  },
  {
    "type": "Feature",
    "geometry": {
       "type": "Point",
       "coordinates":  [ -95.415751,32.344008,164.7 ]
    },
    "properties": {
    "AQSID":"484230007",
    "SiteName":"Tyler Airport Relocated C82",
    "Status":"Active",
    "State":"TX",
    "Date":"4/25/2020",
    "Time":"4:00",
    "Ozone":44,
    "PM10":-9999,
    "PM25":-9999,
    "NO2":-9999
    }
  },
  {
    "type": "Feature",
    "geometry": {
       "type": "Point",
       "coordinates":  [ -122.13593,42.895957,0 ]
    },
    "properties": {
    "AQSID":"410351002",
    "SiteName":"Crater Lake Maintenance Bldg",
    "Status":"Inactive",
    "State":"OR",
    "Date":"4/25/2020",
    "Time":"4:00",
    "Ozone":-9999,
    "PM10":-9999,
    "PM25":-9999,
    "NO2":-9999
    }
  },
  {
    "type": "Feature",
    "geometry": {
       "type": "Point",
       "coordinates":  [ -111.754601,33.5079,394.7 ]
    },
    "properties": {
    "AQSID":"40137021",
    "SiteName":"Red Mountain",
    "Status":"Active",
    "State":"AZ",
    "Date":"4/25/2020",
    "Time":"4:00",
    "Ozone":31,
    "PM10":-9999,
    "PM25":-9999,
    "NO2":-9999
    }
  },
  {
    "type": "Feature",
    "geometry": {
       "type": "Point",
       "coordinates":  [ -111.805099,33.474499,377.6 ]
    },
    "properties": {
    "AQSID":"40137022",
    "SiteName":"LEHI",
    "Status":"Active",
    "State":"AZ",
    "Date":"4/25/2020",
    "Time":"4:00",
    "Ozone":35,
    "PM10":40,
    "PM25":-9999,
    "NO2":-9999
    }
  },
  {
    "type": "Feature",
    "geometry": {
       "type": "Point",
       "coordinates":  [ -155.110535,19.717562,0 ]
    },
    "properties": {
    "AQSID":"150011006",
    "SiteName":"Hilo",
    "Status":"Active",
    "State":"HI",
    "Date":"4/25/2020",
    "Time":"4:00",
    "Ozone":-9999,
    "PM10":-9999,
    "PM25":37,
    "NO2":-9999
    }
  },
  {
    "type": "Feature",
    "geometry": {
       "type": "Point",
       "coordinates":  [ -111.855003,33.4883,377 ]
    },
    "properties": {
    "AQSID":"40137020",
    "SiteName":"Senior Center",
    "Status":"Active",
    "State":"AZ",
    "Date":"4/25/2020",
    "Time":"4:00",
    "Ozone":34,
    "PM10":55,
    "PM25":-9999,
    "NO2":-9999
    }
  },
  {
    "type": "Feature",
    "geometry": {
       "type": "Point",
       "coordinates":  [ -111.837799,33.507999,394.4 ]
    },
    "properties": {
    "AQSID":"40137024",
    "SiteName":"High School",
    "Status":"Active",
    "State":"AZ",
    "Date":"4/25/2020",
    "Time":"4:00",
    "Ozone":36,
    "PM10":23,
    "PM25":-9999,
    "NO2":-9999
    }
  },
  {
    "type": "Feature",
    "geometry": {
       "type": "Point",
       "coordinates":  [ -97.169116,32.470156,195.2 ]
    },
    "properties": {
    "AQSID":"482511008",
    "SiteName":"Johnson County Luisa C1008",
    "Status":"Active",
    "State":"TX",
    "Date":"4/25/2020",
    "Time":"4:00",
    "Ozone":-9999,
    "PM10":-9999,
    "PM25":-9999,
    "NO2":-9999
    }
  },
  {
    "type": "Feature",
    "geometry": {
       "type": "Point",
       "coordinates":  [ -90.521896,41.6992,0 ]
    },
    "properties": {
    "AQSID":"191630014",
    "SiteName":"Scott County Park",
    "Status":"Active",
    "State":"IA",
    "Date":"4/25/2020",
    "Time":"4:00",
    "Ozone":22,
    "PM10":-9999,
    "PM25":-9999,
    "NO2":-9999
    }
  },
  {
    "type": "Feature",
    "geometry": {
       "type": "Point",
       "coordinates":  [ -90.587502,41.529999,0 ]
    },
    "properties": {
    "AQSID":"191630015",
    "SiteName":"Davenport, 10th & Vine",
    "Status":"Active",
    "State":"IA",
    "Date":"4/25/2020",
    "Time":"4:00",
    "Ozone":19,
    "PM10":-9999,
    "PM25":63,
    "NO2":-9999
    }
  },
  {
    "type": "Feature",
    "geometry": {
       "type": "Point",
       "coordinates":  [ -90.688301,41.467201,0 ]
    },
    "properties": {
    "AQSID":"191630017",
    "SiteName":"Buffalo",
    "Status":"Active",
    "State":"IA",
    "Date":"4/25/2020",
    "Time":"4:00",
    "Ozone":-9999,
    "PM10":13,
    "PM25":-9999,
    "NO2":-9999
    }
  },
  {
    "type": "Feature",
    "geometry": {
       "type": "Point",
       "coordinates":  [ -90.618896,41.516399,0 ]
    },
    "properties": {
    "AQSID":"191630019",
    "SiteName":"Davenport, Black Hawk",
    "Status":"Inactive",
    "State":"IA",
    "Date":"4/25/2020",
    "Time":"4:00",
    "Ozone":-9999,
    "PM10":-9999,
    "PM25":-9999,
    "NO2":-9999
    }
  },
  {
    "type": "Feature",
    "geometry": {
       "type": "Point",
       "coordinates":  [ -87.0756,37.7808,0 ]
    },
    "properties": {
    "AQSID":"210590005",
    "SiteName":"OWENPRI",
    "Status":"Active",
    "State":"KY",
    "Date":"4/25/2020",
    "Time":"4:00",
    "Ozone":31,
    "PM10":-9999,
    "PM25":48,
    "NO2":-9999
    }
  },
  {
    "type": "Feature",
    "geometry": {
       "type": "Point",
       "coordinates":  [ -113.4347,48.740799,1385 ]
    },
    "properties": {
    "AQSID":"300351001",
    "SiteName":"Glacier NP Portable",
    "Status":"Inactive",
    "State":"MT",
    "Date":"4/25/2020",
    "Time":"4:00",
    "Ozone":-9999,
    "PM10":-9999,
    "PM25":-9999,
    "NO2":-9999
    }
  },
  {
    "type": "Feature",
    "geometry": {
       "type": "Point",
       "coordinates":  [ -70.76973,43.111364,13.1 ]
    },
    "properties": {
    "AQSID":"230310009",
    "SiteName":"Eliot, Sawgrass Lane",
    "Status":"Inactive",
    "State":"ME",
    "Date":"4/25/2020",
    "Time":"4:00",
    "Ozone":-9999,
    "PM10":-9999,
    "PM25":-9999,
    "NO2":-9999
    }
  },
  {
    "type": "Feature",
    "geometry": {
       "type": "Point",
       "coordinates":  [ -74.861488,39.68425,32.9 ]
    },
    "properties": {
    "AQSID":"340071001",
    "SiteName":"Ancora State Hosptial",
    "Status":"Active",
    "State":"NJ",
    "Date":"4/25/2020",
    "Time":"4:00",
    "Ozone":21,
    "PM10":-9999,
    "PM25":-9999,
    "NO2":-9999
    }
  },
  {
    "type": "Feature",
    "geometry": {
       "type": "Point",
       "coordinates":  [ -80.632797,37.9081,0 ]
    },
    "properties": {
    "AQSID":"540250003",
    "SiteName":"GREENBRIER COUNTY",
    "Status":"Active",
    "State":"WV",
    "Date":"4/25/2020",
    "Time":"4:00",
    "Ozone":19,
    "PM10":-9999,
    "PM25":-9999,
    "NO2":-9999
    }
  },
  {
    "type": "Feature",
    "geometry": {
       "type": "Point",
       "coordinates":  [ -76.604698,39.2981,11.9 ]
    },
    "properties": {
    "AQSID":"245100040",
    "SiteName":"Oldtown",
    "Status":"Active",
    "State":"MD",
    "Date":"4/25/2020",
    "Time":"4:00",
    "Ozone":-9999,
    "PM10":-9999,
    "PM25":18,
    "NO2":8
    }
  },
  {
    "type": "Feature",
    "geometry": {
       "type": "Point",
       "coordinates":  [ -85.245556,40.3,0 ]
    },
    "properties": {
    "AQSID":"180350010",
    "SiteName":"Albany",
    "Status":"Active",
    "State":"IN",
    "Date":"4/25/2020",
    "Time":"4:00",
    "Ozone":23,
    "PM10":-9999,
    "PM25":-9999,
    "NO2":-9999
    }
  },
  {
    "type": "Feature",
    "geometry": {
       "type": "Point",
       "coordinates":  [ -84.191668,39.757837,0 ]
    },
    "properties": {
    "AQSID":"391130003",
    "SiteName":"Reibold",
    "Status":"Inactive",
    "State":"OH",
    "Date":"4/25/2020",
    "Time":"4:00",
    "Ozone":-9999,
    "PM10":-9999,
    "PM25":-9999,
    "NO2":-9999
    }
  },
  {
    "type": "Feature",
    "geometry": {
       "type": "Point",
       "coordinates":  [ -81.8789,26.6028,0 ]
    },
    "properties": {
    "AQSID":"120710005",
    "SiteName":"Winkler Pump Station",
    "Status":"Active",
    "State":"FL",
    "Date":"4/25/2020",
    "Time":"4:00",
    "Ozone":-9999,
    "PM10":-9999,
    "PM25":32,
    "NO2":-9999
    }
  },
  {
    "type": "Feature",
    "geometry": {
       "type": "Point",
       "coordinates":  [ -161.767,60.79583,0.9 ]
    },
    "properties": {
    "AQSID":"20500001",
    "SiteName":"Bethel",
    "Status":"Active",
    "State":"AK",
    "Date":"4/25/2020",
    "Time":"4:00",
    "Ozone":-9999,
    "PM10":-9999,
    "PM25":-9999,
    "NO2":-9999
    }
  },
  {
    "type": "Feature",
    "geometry": {
       "type": "Point",
       "coordinates":  [ -83.183296,42.4631,390.4 ]
    },
    "properties": {
    "AQSID":"261250001",
    "SiteName":"OAK PARK",
    "Status":"Active",
    "State":"MI",
    "Date":"4/25/2020",
    "Time":"4:00",
    "Ozone":25,
    "PM10":-9999,
    "PM25":-9999,
    "NO2":-9999
    }
  },
  {
    "type": "Feature",
    "geometry": {
       "type": "Point",
       "coordinates":  [ -122.308628,47.568236,101.9 ]
    },
    "properties": {
    "AQSID":"530330080",
    "SiteName":"Seattle-Beacon Hill",
    "Status":"Active",
    "State":"WA",
    "Date":"4/25/2020",
    "Time":"4:00",
    "Ozone":22,
    "PM10":-9999,
    "PM25":16,
    "NO2":12
    }
  },
  {
    "type": "Feature",
    "geometry": {
       "type": "Point",
       "coordinates":  [ -88.548302,39.0667,0 ]
    },
    "properties": {
    "AQSID":"170491001",
    "SiteName":"EFFINGHM",
    "Status":"Active",
    "State":"IL",
    "Date":"4/25/2020",
    "Time":"4:00",
    "Ozone":-9999,
    "PM10":-9999,
    "PM25":-9999,
    "NO2":-9999
    }
  },
  {
    "type": "Feature",
    "geometry": {
       "type": "Point",
       "coordinates":  [ -89.08917,42.267002,0 ]
    },
    "properties": {
    "AQSID":"8.40172E+11",
    "SiteName":"Rockford",
    "Status":"Active",
    "State":"IL",
    "Date":"4/25/2020",
    "Time":"4:00",
    "Ozone":-9999,
    "PM10":-9999,
    "PM25":66,
    "NO2":-9999
    }
  },
  {
    "type": "Feature",
    "geometry": {
       "type": "Point",
       "coordinates":  [ -76.617194,38.536722,43.3 ]
    },
    "properties": {
    "AQSID":"240090011",
    "SiteName":"Calvert",
    "Status":"Active",
    "State":"MD",
    "Date":"4/25/2020",
    "Time":"4:00",
    "Ozone":24,
    "PM10":-9999,
    "PM25":-9999,
    "NO2":-9999
    }
  },
  {
    "type": "Feature",
    "geometry": {
       "type": "Point",
       "coordinates":  [ -73.8933,40.7269,0 ]
    },
    "properties": {
    "AQSID":"360810120",
    "SiteName":"Maspeth",
    "Status":"Active",
    "State":"NY",
    "Date":"4/25/2020",
    "Time":"4:00",
    "Ozone":-9999,
    "PM10":-9999,
    "PM25":27,
    "NO2":-9999
    }
  },
  {
    "type": "Feature",
    "geometry": {
       "type": "Point",
       "coordinates":  [ -82.383359,27.864273,0 ]
    },
    "properties": {
    "AQSID":"120570083",
    "SiteName":"GARDINIER",
    "Status":"Active",
    "State":"FL",
    "Date":"4/25/2020",
    "Time":"4:00",
    "Ozone":-9999,
    "PM10":10,
    "PM25":-9999,
    "NO2":-9999
    }
  },
  {
    "type": "Feature",
    "geometry": {
       "type": "Point",
       "coordinates":  [ -82.4656,27.7403,3.1 ]
    },
    "properties": {
    "AQSID":"120570081",
    "SiteName":"SIMMONS PARK",
    "Status":"Active",
    "State":"FL",
    "Date":"4/25/2020",
    "Time":"4:00",
    "Ozone":41,
    "PM10":-9999,
    "PM25":-9999,
    "NO2":-9999
    }
  },
  {
    "type": "Feature",
    "geometry": {
       "type": "Point",
       "coordinates":  [ -105.287498,44.6633,1201.7 ]
    },
    "properties": {
    "AQSID":"560050123",
    "SiteName":"Thunder Basin",
    "Status":"Active",
    "State":"WY",
    "Date":"4/25/2020",
    "Time":"4:00",
    "Ozone":34,
    "PM10":-9999,
    "PM25":-9999,
    "NO2":0
    }
  },
  {
    "type": "Feature",
    "geometry": {
       "type": "Point",
       "coordinates":  [ -73.8244,40.7375,0 ]
    },
    "properties": {
    "AQSID":"360810124",
    "SiteName":"Queens",
    "Status":"Active",
    "State":"NY",
    "Date":"4/25/2020",
    "Time":"4:00",
    "Ozone":12,
    "PM10":-9999,
    "PM25":27,
    "NO2":-9999
    }
  },
  {
    "type": "Feature",
    "geometry": {
       "type": "Point",
       "coordinates":  [ -77.465,37.5626,0 ]
    },
    "properties": {
    "AQSID":"517600024",
    "SiteName":"RICHMOND - SCIENCE MUSEUM",
    "Status":"Inactive",
    "State":"VA",
    "Date":"4/25/2020",
    "Time":"4:00",
    "Ozone":-9999,
    "PM10":-9999,
    "PM25":-9999,
    "NO2":-9999
    }
  },
  {
    "type": "Feature",
    "geometry": {
       "type": "Point",
       "coordinates":  [ -73.817694,40.739264,14.6 ]
    },
    "properties": {
    "AQSID":"360810125",
    "SiteName":"Queens Near-road",
    "Status":"Active",
    "State":"NY",
    "Date":"4/25/2020",
    "Time":"4:00",
    "Ozone":-9999,
    "PM10":-9999,
    "PM25":34,
    "NO2":-9999
    }
  },
  {
    "type": "Feature",
    "geometry": {
       "type": "Point",
       "coordinates":  [ -84.4744,39.0217,0 ]
    },
    "properties": {
    "AQSID":"210373002",
    "SiteName":"NKU",
    "Status":"Active",
    "State":"KY",
    "Date":"4/25/2020",
    "Time":"4:00",
    "Ozone":35,
    "PM10":-9999,
    "PM25":42,
    "NO2":-9999
    }
  },
  {
    "type": "Feature",
    "geometry": {
       "type": "Point",
       "coordinates":  [ -93.725897,30.153675,7.9 ]
    },
    "properties": {
    "AQSID":"483611083",
    "SiteName":"Orange 1st Street",
    "Status":"Active",
    "State":"TX",
    "Date":"4/25/2020",
    "Time":"4:00",
    "Ozone":-9999,
    "PM10":-9999,
    "PM25":-9999,
    "NO2":-9999
    }
  },
  {
    "type": "Feature",
    "geometry": {
       "type": "Point",
       "coordinates":  [ -123.2118,45.2094,44.8 ]
    },
    "properties": {
    "AQSID":"410711002",
    "SiteName":"McMinnville Newby School",
    "Status":"Inactive",
    "State":"OR",
    "Date":"4/25/2020",
    "Time":"4:00",
    "Ozone":-9999,
    "PM10":-9999,
    "PM25":-9999,
    "NO2":-9999
    }
  },
  {
    "type": "Feature",
    "geometry": {
       "type": "Point",
       "coordinates":  [ -123.2118,45.2094,44.8 ]
    },
    "properties": {
    "AQSID":"410711001",
    "SiteName":"na",
    "Status":"Inactive",
    "State":"OR",
    "Date":"4/25/2020",
    "Time":"4:00",
    "Ozone":-9999,
    "PM10":-9999,
    "PM25":-9999,
    "NO2":-9999
    }
  },
  {
    "type": "Feature",
    "geometry": {
       "type": "Point",
       "coordinates":  [ -104.9572,39.5689,1571.1 ]
    },
    "properties": {
    "AQSID":"80050002",
    "SiteName":"Highland Reservoir - 8100 S. University Blvd.",
    "Status":"Active",
    "State":"CO",
    "Date":"4/25/2020",
    "Time":"4:00",
    "Ozone":32,
    "PM10":-9999,
    "PM25":-9999,
    "NO2":-9999
    }
  },
  {
    "type": "Feature",
    "geometry": {
       "type": "Point",
       "coordinates":  [ -84.13437,39.78563,243.1 ]
    },
    "properties": {
    "AQSID":"391130037",
    "SiteName":"Eastwood",
    "Status":"Active",
    "State":"OH",
    "Date":"4/25/2020",
    "Time":"4:00",
    "Ozone":21,
    "PM10":-9999,
    "PM25":-9999,
    "NO2":-9999
    }
  },
  {
    "type": "Feature",
    "geometry": {
       "type": "Point",
       "coordinates":  [ -107.119184,41.783389,2016.1 ]
    },
    "properties": {
    "AQSID":"560071000",
    "SiteName":"Sinclair Mobile",
    "Status":"Inactive",
    "State":"WY",
    "Date":"4/25/2020",
    "Time":"4:00",
    "Ozone":-9999,
    "PM10":-9999,
    "PM25":-9999,
    "NO2":-9999
    }
  },
  {
    "type": "Feature",
    "geometry": {
       "type": "Point",
       "coordinates":  [ -97.063705,32.98426,175.4 ]
    },
    "properties": {
    "AQSID":"484393009",
    "SiteName":"Grapevine Fairway C70",
    "Status":"Active",
    "State":"TX",
    "Date":"4/25/2020",
    "Time":"4:00",
    "Ozone":44,
    "PM10":-9999,
    "PM25":-9999,
    "NO2":-9999
    }
  },
  {
    "type": "Feature",
    "geometry": {
       "type": "Point",
       "coordinates":  [ -84.187678,39.760659,298.9 ]
    },
    "properties": {
    "AQSID":"391130032",
    "SiteName":"Library",
    "Status":"Inactive",
    "State":"OH",
    "Date":"4/25/2020",
    "Time":"4:00",
    "Ozone":-9999,
    "PM10":-9999,
    "PM25":-9999,
    "NO2":-9999
    }
  },
  {
    "type": "Feature",
    "geometry": {
       "type": "Point",
       "coordinates":  [ -78.953112,35.041416,61 ]
    },
    "properties": {
    "AQSID":"370510009",
    "SiteName":"W OWEN SCH",
    "Status":"Active",
    "State":"NC",
    "Date":"4/25/2020",
    "Time":"4:00",
    "Ozone":-9999,
    "PM10":8,
    "PM25":23,
    "NO2":-9999
    }
  },
  {
    "type": "Feature",
    "geometry": {
       "type": "Point",
       "coordinates":  [ -84.1345,39.785,240 ]
    },
    "properties": {
    "AQSID":"391130035",
    "SiteName":"Eastwood",
    "Status":"Inactive",
    "State":"OH",
    "Date":"4/25/2020",
    "Time":"4:00",
    "Ozone":-9999,
    "PM10":-9999,
    "PM25":-9999,
    "NO2":-9999
    }
  },
  {
    "type": "Feature",
    "geometry": {
       "type": "Point",
       "coordinates":  [ -91.503471,41.658195,0 ]
    },
    "properties": {
    "AQSID":"191032001",
    "SiteName":"Iowa City, Hoover School",
    "Status":"Active",
    "State":"IA",
    "Date":"4/25/2020",
    "Time":"4:00",
    "Ozone":-9999,
    "PM10":-9999,
    "PM25":61,
    "NO2":-9999
    }
  },
  {
    "type": "Feature",
    "geometry": {
       "type": "Point",
       "coordinates":  [ -78.728035,35.158686,44.8 ]
    },
    "properties": {
    "AQSID":"370510008",
    "SiteName":"WADE",
    "Status":"Active",
    "State":"NC",
    "Date":"4/25/2020",
    "Time":"4:00",
    "Ozone":31,
    "PM10":-9999,
    "PM25":-9999,
    "NO2":-9999
    }
  },
  {
    "type": "Feature",
    "geometry": {
       "type": "Point",
       "coordinates":  [ -84.191668,39.757837,0 ]
    },
    "properties": {
    "AQSID":"391130034",
    "SiteName":"REIBOLD",
    "Status":"Inactive",
    "State":"OH",
    "Date":"4/25/2020",
    "Time":"4:00",
    "Ozone":-9999,
    "PM10":-9999,
    "PM25":-9999,
    "NO2":-9999
    }
  },
  {
    "type": "Feature",
    "geometry": {
       "type": "Point",
       "coordinates":  [ -104.569061,39.638542,1800.7 ]
    },
    "properties": {
    "AQSID":"80050006",
    "SiteName":"Aurora East",
    "Status":"Active",
    "State":"CO",
    "Date":"4/25/2020",
    "Time":"4:00",
    "Ozone":33,
    "PM10":-9999,
    "PM25":-9999,
    "NO2":-9999
    }
  },
  {
    "type": "Feature",
    "geometry": {
       "type": "Point",
       "coordinates":  [ -80.3419,36.0261,248.9 ]
    },
    "properties": {
    "AQSID":"370670030",
    "SiteName":"Clemmons Middle",
    "Status":"Active",
    "State":"NC",
    "Date":"4/25/2020",
    "Time":"4:00",
    "Ozone":26,
    "PM10":-9999,
    "PM25":15,
    "NO2":-9999
    }
  },
  {
    "type": "Feature",
    "geometry": {
       "type": "Point",
       "coordinates":  [ -70.877342,43.58889,0 ]
    },
    "properties": {
    "AQSID":"230310040",
    "SiteName":"Shapleigh Ball Park",
    "Status":"Active",
    "State":"ME",
    "Date":"4/25/2020",
    "Time":"4:00",
    "Ozone":28,
    "PM10":-9999,
    "PM25":-9999,
    "NO2":-9999
    }
  },
  {
    "type": "Feature",
    "geometry": {
       "type": "Point",
       "coordinates":  [ -113.055524,37.747445,0 ]
    },
    "properties": {
    "AQSID":"490210005",
    "SiteName":"Enoch",
    "Status":"Active",
    "State":"UT",
    "Date":"4/25/2020",
    "Time":"4:00",
    "Ozone":28,
    "PM10":-9999,
    "PM25":23,
    "NO2":4
    }
  },
  {
    "type": "Feature",
    "geometry": {
       "type": "Point",
       "coordinates":  [ -80.2158,36.2031,292.5 ]
    },
    "properties": {
    "AQSID":"370670028",
    "SiteName":"SHILOHCHUR",
    "Status":"Inactive",
    "State":"NC",
    "Date":"4/25/2020",
    "Time":"4:00",
    "Ozone":-9999,
    "PM10":-9999,
    "PM25":-9999,
    "NO2":-9999
    }
  },
  {
    "type": "Feature",
    "geometry": {
       "type": "Point",
       "coordinates":  [ -81.635556,30.356111,0 ]
    },
    "properties": {
    "AQSID":"120310032",
    "SiteName":"Kooker Park",
    "Status":"Active",
    "State":"FL",
    "Date":"4/25/2020",
    "Time":"4:00",
    "Ozone":-9999,
    "PM10":20,
    "PM25":54,
    "NO2":2
    }
  },
  {
    "type": "Feature",
    "geometry": {
       "type": "Point",
       "coordinates":  [ -70.629135,43.656765,0 ]
    },
    "properties": {
    "AQSID":"230310038",
    "SiteName":"West Buxton",
    "Status":"Active",
    "State":"ME",
    "Date":"4/25/2020",
    "Time":"4:00",
    "Ozone":23,
    "PM10":-9999,
    "PM25":-9999,
    "NO2":-9999
    }
  },
  {
    "type": "Feature",
    "geometry": {
       "type": "Point",
       "coordinates":  [ -80.2267,36.1106,281.8 ]
    },
    "properties": {
    "AQSID":"370670022",
    "SiteName":"HATTIEAVEN",
    "Status":"Active",
    "State":"NC",
    "Date":"4/25/2020",
    "Time":"4:00",
    "Ozone":33,
    "PM10":5,
    "PM25":11,
    "NO2":2
    }
  },
  {
    "type": "Feature",
    "geometry": {
       "type": "Point",
       "coordinates":  [ -120.544932,46.993825,0 ]
    },
    "properties": {
    "AQSID":"840MM0370180",
    "SiteName":"Ellensburg_Mobile",
    "Status":"Inactive",
    "State":"MM",
    "Date":"4/25/2020",
    "Time":"4:00",
    "Ozone":-9999,
    "PM10":-9999,
    "PM25":-9999,
    "NO2":-9999
    }
  },
  {
    "type": "Feature",
    "geometry": {
       "type": "Point",
       "coordinates":  [ -82.3625,27.0892,0 ]
    },
    "properties": {
    "AQSID":"121152002",
    "SiteName":"Jackson Road",
    "Status":"Active",
    "State":"FL",
    "Date":"4/25/2020",
    "Time":"4:00",
    "Ozone":35,
    "PM10":-9999,
    "PM25":20,
    "NO2":-9999
    }
  },
  {
    "type": "Feature",
    "geometry": {
       "type": "Point",
       "coordinates":  [ -83.325302,42.633301,0 ]
    },
    "properties": {
    "AQSID":"261250011",
    "SiteName":"PONTIAC",
    "Status":"Active",
    "State":"MI",
    "Date":"4/25/2020",
    "Time":"4:00",
    "Ozone":-9999,
    "PM10":-9999,
    "PM25":-9999,
    "NO2":-9999
    }
  },
  {
    "type": "Feature",
    "geometry": {
       "type": "Point",
       "coordinates":  [ -83.1303,42.6791,390.4 ]
    },
    "properties": {
    "AQSID":"261250012",
    "SiteName":"ROCHESTER",
    "Status":"Active",
    "State":"MI",
    "Date":"4/25/2020",
    "Time":"4:00",
    "Ozone":-9999,
    "PM10":-9999,
    "PM25":-9999,
    "NO2":-9999
    }
  },
  {
    "type": "Feature",
    "geometry": {
       "type": "Point",
       "coordinates":  [ -74.192894,40.720989,26.8 ]
    },
    "properties": {
    "AQSID":"340130003",
    "SiteName":"Newark Firehouse",
    "Status":"Active",
    "State":"NJ",
    "Date":"4/25/2020",
    "Time":"4:00",
    "Ozone":13,
    "PM10":-9999,
    "PM25":35,
    "NO2":31
    }
  },
  {
    "type": "Feature",
    "geometry": {
       "type": "Point",
       "coordinates":  [ -97.474197,34.256901,293.1 ]
    },
    "properties": {
    "AQSID":"400190297",
    "SiteName":"Healdton",
    "Status":"Active",
    "State":"OK",
    "Date":"4/25/2020",
    "Time":"4:00",
    "Ozone":38,
    "PM10":16,
    "PM25":25,
    "NO2":-9999
    }
  },
  {
    "type": "Feature",
    "geometry": {
       "type": "Point",
       "coordinates":  [ -82.643094,28.958372,0 ]
    },
    "properties": {
    "AQSID":"120170006",
    "SiteName":"Crystal River Preserve",
    "Status":"Active",
    "State":"FL",
    "Date":"4/25/2020",
    "Time":"4:00",
    "Ozone":-9999,
    "PM10":-9999,
    "PM25":35,
    "NO2":-9999
    }
  },
  {
    "type": "Feature",
    "geometry": {
       "type": "Point",
       "coordinates":  [ -79.868301,40.323898,335.5 ]
    },
    "properties": {
    "AQSID":"420030064",
    "SiteName":"Liberty (SAHS)",
    "Status":"Active",
    "State":"PA",
    "Date":"4/25/2020",
    "Time":"4:00",
    "Ozone":-9999,
    "PM10":-9999,
    "PM25":39,
    "NO2":-9999
    }
  },
  {
    "type": "Feature",
    "geometry": {
       "type": "Point",
       "coordinates":  [ -95.7114,39.0242,280 ]
    },
    "properties": {
    "AQSID":"201770013",
    "SiteName":"KNI-Topeka",
    "Status":"Active",
    "State":"KS",
    "Date":"4/25/2020",
    "Time":"4:00",
    "Ozone":32,
    "PM10":4,
    "PM25":20,
    "NO2":-9999
    }
  },
  {
    "type": "Feature",
    "geometry": {
       "type": "Point",
       "coordinates":  [ -80.1856,40.381901,390.1 ]
    },
    "properties": {
    "AQSID":"420030067",
    "SiteName":"South Fayette",
    "Status":"Active",
    "State":"PA",
    "Date":"4/25/2020",
    "Time":"4:00",
    "Ozone":40,
    "PM10":-9999,
    "PM25":-9999,
    "NO2":-9999
    }
  },
  {
    "type": "Feature",
    "geometry": {
       "type": "Point",
       "coordinates":  [ -119.69091,34.42775,6.1 ]
    },
    "properties": {
    "AQSID":"60830011",
    "SiteName":"Santa Barbara",
    "Status":"Active",
    "State":"CA",
    "Date":"4/25/2020",
    "Time":"4:00",
    "Ozone":29,
    "PM10":38,
    "PM25":46,
    "NO2":-9999
    }
  },
  {
    "type": "Feature",
    "geometry": {
       "type": "Point",
       "coordinates":  [ -97.0886,32.6558,0 ]
    },
    "properties": {
    "AQSID":"484393011",
    "SiteName":"Arlington Municipal Airport C61",
    "Status":"Active",
    "State":"TX",
    "Date":"4/25/2020",
    "Time":"4:00",
    "Ozone":41,
    "PM10":-9999,
    "PM25":-9999,
    "NO2":-9999
    }
  },
  {
    "type": "Feature",
    "geometry": {
       "type": "Point",
       "coordinates":  [ -74.448738,39.46487,4.9 ]
    },
    "properties": {
    "AQSID":"340010006",
    "SiteName":"Brigantine",
    "Status":"Active",
    "State":"NJ",
    "Date":"4/25/2020",
    "Time":"4:00",
    "Ozone":21,
    "PM10":-9999,
    "PM25":14,
    "NO2":-9999
    }
  },
  {
    "type": "Feature",
    "geometry": {
       "type": "Point",
       "coordinates":  [ -79.011902,39.705799,764.6 ]
    },
    "properties": {
    "AQSID":"240230002",
    "SiteName":"Piney Run",
    "Status":"Active",
    "State":"MD",
    "Date":"4/25/2020",
    "Time":"4:00",
    "Ozone":15,
    "PM10":-9999,
    "PM25":34,
    "NO2":2
    }
  },
  {
    "type": "Feature",
    "geometry": {
       "type": "Point",
       "coordinates":  [ -75.159401,38.251099,2.7 ]
    },
    "properties": {
    "AQSID":"240471001",
    "SiteName":"Assateague Island NS",
    "Status":"Inactive",
    "State":"MD",
    "Date":"4/25/2020",
    "Time":"4:00",
    "Ozone":-9999,
    "PM10":-9999,
    "PM25":-9999,
    "NO2":-9999
    }
  },
  {
    "type": "Feature",
    "geometry": {
       "type": "Point",
       "coordinates":  [ -69.260803,43.917953,0 ]
    },
    "properties": {
    "AQSID":"230130004",
    "SiteName":"Port Clyde",
    "Status":"Inactive",
    "State":"ME",
    "Date":"4/25/2020",
    "Time":"4:00",
    "Ozone":-9999,
    "PM10":-9999,
    "PM25":-9999,
    "NO2":-9999
    }
  },
  {
    "type": "Feature",
    "geometry": {
       "type": "Point",
       "coordinates":  [ -117.049112,48.186496,0 ]
    },
    "properties": {
    "AQSID":"840MM0510199",
    "SiteName":"Newport_Mobile",
    "Status":"Inactive",
    "State":"MM",
    "Date":"4/25/2020",
    "Time":"4:00",
    "Ozone":-9999,
    "PM10":-9999,
    "PM25":-9999,
    "NO2":-9999
    }
  },
  {
    "type": "Feature",
    "geometry": {
       "type": "Point",
       "coordinates":  [ -120.024399,34.462502,0 ]
    },
    "properties": {
    "AQSID":"60830008",
    "SiteName":"El Capitan",
    "Status":"Inactive",
    "State":"CA",
    "Date":"4/25/2020",
    "Time":"4:00",
    "Ozone":-9999,
    "PM10":-9999,
    "PM25":-9999,
    "NO2":-9999
    }
  },
  {
    "type": "Feature",
    "geometry": {
       "type": "Point",
       "coordinates":  [ -81.5869,30.4758,0 ]
    },
    "properties": {
    "AQSID":"120310077",
    "SiteName":"Sheffield Elementary School",
    "Status":"Active",
    "State":"FL",
    "Date":"4/25/2020",
    "Time":"4:00",
    "Ozone":34,
    "PM10":-9999,
    "PM25":56,
    "NO2":-9999
    }
  },
  {
    "type": "Feature",
    "geometry": {
       "type": "Point",
       "coordinates":  [ -82.5097,27.9319,6.1 ]
    },
    "properties": {
    "AQSID":"120570030",
    "SiteName":"PCEIA3",
    "Status":"Inactive",
    "State":"FL",
    "Date":"4/25/2020",
    "Time":"4:00",
    "Ozone":-9999,
    "PM10":-9999,
    "PM25":-9999,
    "NO2":-9999
    }
  },
  {
    "type": "Feature",
    "geometry": {
       "type": "Point",
       "coordinates":  [ -122.440201,48.762699,23.8 ]
    },
    "properties": {
    "AQSID":"530730015",
    "SiteName":"Bellingham-Yew St",
    "Status":"Inactive",
    "State":"WA",
    "Date":"4/25/2020",
    "Time":"4:00",
    "Ozone":-9999,
    "PM10":-9999,
    "PM25":-9999,
    "NO2":-9999
    }
  },
  {
    "type": "Feature",
    "geometry": {
       "type": "Point",
       "coordinates":  [ -122.456463,48.760036,0 ]
    },
    "properties": {
    "AQSID":"530730019",
    "SiteName":"Bellingham Pacifc",
    "Status":"Active",
    "State":"WA",
    "Date":"4/25/2020",
    "Time":"4:00",
    "Ozone":-9999,
    "PM10":-9999,
    "PM25":35,
    "NO2":-9999
    }
  },
  {
    "type": "Feature",
    "geometry": {
       "type": "Point",
       "coordinates":  [ -121.82046,39.20556,645.4 ]
    },
    "properties": {
    "AQSID":"61010004",
    "SiteName":"Sutter Buttes (seasonal)",
    "Status":"Active",
    "State":"CA",
    "Date":"4/25/2020",
    "Time":"4:00",
    "Ozone":40,
    "PM10":-9999,
    "PM25":-9999,
    "NO2":-9999
    }
  },
  {
    "type": "Feature",
    "geometry": {
       "type": "Point",
       "coordinates":  [ -88.3724,40.0519,212 ]
    },
    "properties": {
    "AQSID":"170199991",
    "SiteName":"Bondville",
    "Status":"Active",
    "State":"IL",
    "Date":"4/25/2020",
    "Time":"4:00",
    "Ozone":19,
    "PM10":-9999,
    "PM25":-9999,
    "NO2":-9999
    }
  },
  {
    "type": "Feature",
    "geometry": {
       "type": "Point",
       "coordinates":  [ -79.863572,40.437431,111.3 ]
    },
    "properties": {
    "AQSID":"420031376",
    "SiteName":"Parkway East (Near Road)",
    "Status":"Active",
    "State":"PA",
    "Date":"4/25/2020",
    "Time":"4:00",
    "Ozone":-9999,
    "PM10":-9999,
    "PM25":30,
    "NO2":-9999
    }
  },
  {
    "type": "Feature",
    "geometry": {
       "type": "Point",
       "coordinates":  [ -87.5061,44.4428,0 ]
    },
    "properties": {
    "AQSID":"550610002",
    "SiteName":"KEWAUNEE",
    "Status":"Active",
    "State":"WI",
    "Date":"4/25/2020",
    "Time":"4:00",
    "Ozone":32,
    "PM10":-9999,
    "PM25":-9999,
    "NO2":-9999
    }
  },
  {
    "type": "Feature",
    "geometry": {
       "type": "Point",
       "coordinates":  [ -103.315765,44.155636,0 ]
    },
    "properties": {
    "AQSID":"460930001",
    "SiteName":"Black Hawk",
    "Status":"Active",
    "State":"SD",
    "Date":"4/25/2020",
    "Time":"4:00",
    "Ozone":37,
    "PM10":4,
    "PM25":-9999,
    "NO2":-9999
    }
  },
  {
    "type": "Feature",
    "geometry": {
       "type": "Point",
       "coordinates":  [ -85.6611,40.816,250.1 ]
    },
    "properties": {
    "AQSID":"181699991",
    "SiteName":"Salamonie Reservoir",
    "Status":"Active",
    "State":"IN",
    "Date":"4/25/2020",
    "Time":"4:00",
    "Ozone":25,
    "PM10":-9999,
    "PM25":-9999,
    "NO2":-9999
    }
  },
  {
    "type": "Feature",
    "geometry": {
       "type": "Point",
       "coordinates":  [ -122.972398,45.528501,62.8 ]
    },
    "properties": {
    "AQSID":"410670004",
    "SiteName":"Hillsboro - Hare Field",
    "Status":"Active",
    "State":"OR",
    "Date":"4/25/2020",
    "Time":"4:00",
    "Ozone":-9999,
    "PM10":-9999,
    "PM25":29,
    "NO2":-9999
    }
  },
  {
    "type": "Feature",
    "geometry": {
       "type": "Point",
       "coordinates":  [ -76.6538,42.4006,501.1 ]
    },
    "properties": {
    "AQSID":"361099991",
    "SiteName":"Connecticut Hill",
    "Status":"Active",
    "State":"NY",
    "Date":"4/25/2020",
    "Time":"4:00",
    "Ozone":34,
    "PM10":-9999,
    "PM25":-9999,
    "NO2":-9999
    }
  },
  {
    "type": "Feature",
    "geometry": {
       "type": "Point",
       "coordinates":  [ -122.7455,45.39916,0 ]
    },
    "properties": {
    "AQSID":"410670005",
    "SiteName":"Portland Near Road",
    "Status":"Active",
    "State":"OR",
    "Date":"4/25/2020",
    "Time":"4:00",
    "Ozone":12,
    "PM10":-9999,
    "PM25":21,
    "NO2":7
    }
  },
  {
    "type": "Feature",
    "geometry": {
       "type": "Point",
       "coordinates":  [ -71.483299,42.413601,0 ]
    },
    "properties": {
    "AQSID":"250171102",
    "SiteName":"STOW",
    "Status":"Inactive",
    "State":"MA",
    "Date":"4/25/2020",
    "Time":"4:00",
    "Ozone":-9999,
    "PM10":-9999,
    "PM25":-9999,
    "NO2":-9999
    }
  },
  {
    "type": "Feature",
    "geometry": {
       "type": "Point",
       "coordinates":  [ -121.61884,39.13868,0 ]
    },
    "properties": {
    "AQSID":"61010003",
    "SiteName":"Yuba City",
    "Status":"Active",
    "State":"CA",
    "Date":"4/25/2020",
    "Time":"4:00",
    "Ozone":27,
    "PM10":9,
    "PM25":24,
    "NO2":8
    }
  },
  {
    "type": "Feature",
    "geometry": {
       "type": "Point",
       "coordinates":  [ -121.7734,38.53455,0 ]
    },
    "properties": {
    "AQSID":"61130004",
    "SiteName":"Davis - UCD Campus",
    "Status":"Active",
    "State":"CA",
    "Date":"4/25/2020",
    "Time":"4:00",
    "Ozone":22,
    "PM10":-9999,
    "PM25":17,
    "NO2":8
    }
  },
  {
    "type": "Feature",
    "geometry": {
       "type": "Point",
       "coordinates":  [ -80.3467,40.9958,0 ]
    },
    "properties": {
    "AQSID":"420730015",
    "SiteName":"New Castle",
    "Status":"Active",
    "State":"PA",
    "Date":"4/25/2020",
    "Time":"4:00",
    "Ozone":31,
    "PM10":-9999,
    "PM25":-9999,
    "NO2":-9999
    }
  },
  {
    "type": "Feature",
    "geometry": {
       "type": "Point",
       "coordinates":  [ -111.652778,35.206111,2121.3 ]
    },
    "properties": {
    "AQSID":"40051008",
    "SiteName":"Flagstaff Middle School",
    "Status":"Active",
    "State":"AZ",
    "Date":"4/25/2020",
    "Time":"4:00",
    "Ozone":38,
    "PM10":-9999,
    "PM25":-9999,
    "NO2":-9999
    }
  },
  {
    "type": "Feature",
    "geometry": {
       "type": "Point",
       "coordinates":  [ -122.554398,48.950699,1.5 ]
    },
    "properties": {
    "AQSID":"530730005",
    "SiteName":"Custer-Loomis (SO-AQS)",
    "Status":"Active",
    "State":"WA",
    "Date":"4/25/2020",
    "Time":"4:00",
    "Ozone":19,
    "PM10":-9999,
    "PM25":13,
    "NO2":-9999
    }
  },
  {
    "type": "Feature",
    "geometry": {
       "type": "Point",
       "coordinates":  [ -104.938463,39.828387,0 ]
    },
    "properties": {
    "AQSID":"80010008",
    "SiteName":"Adams",
    "Status":"Active",
    "State":"CO",
    "Date":"4/25/2020",
    "Time":"4:00",
    "Ozone":-9999,
    "PM10":-9999,
    "PM25":10,
    "NO2":-9999
    }
  },
  {
    "type": "Feature",
    "geometry": {
       "type": "Point",
       "coordinates":  [ -70.290192,44.045425,0 ]
    },
    "properties": {
    "AQSID":"230010005",
    "SiteName":"Auburn-Lewiston Airport",
    "Status":"Inactive",
    "State":"ME",
    "Date":"4/25/2020",
    "Time":"4:00",
    "Ozone":-9999,
    "PM10":-9999,
    "PM25":-9999,
    "NO2":-9999
    }
  },
  {
    "type": "Feature",
    "geometry": {
       "type": "Point",
       "coordinates":  [ -122.1427,47.6325,100 ]
    },
    "properties": {
    "AQSID":"530330019",
    "SiteName":"Bellevue-148th Ave",
    "Status":"Inactive",
    "State":"WA",
    "Date":"4/25/2020",
    "Time":"4:00",
    "Ozone":-9999,
    "PM10":-9999,
    "PM25":-9999,
    "NO2":-9999
    }
  },
  {
    "type": "Feature",
    "geometry": {
       "type": "Point",
       "coordinates":  [ -121.772697,47.4902,140 ]
    },
    "properties": {
    "AQSID":"530330017",
    "SiteName":"North Bend-North Bend Way (SO)",
    "Status":"Active",
    "State":"WA",
    "Date":"4/25/2020",
    "Time":"4:00",
    "Ozone":-9999,
    "PM10":-9999,
    "PM25":14,
    "NO2":-9999
    }
  },
  {
    "type": "Feature",
    "geometry": {
       "type": "Point",
       "coordinates":  [ -68.671143,44.736465,0 ]
    },
    "properties": {
    "AQSID":"230194008",
    "SiteName":"Holden",
    "Status":"Active",
    "State":"ME",
    "Date":"4/25/2020",
    "Time":"4:00",
    "Ozone":40,
    "PM10":-9999,
    "PM25":-9999,
    "NO2":-9999
    }
  },
  {
    "type": "Feature",
    "geometry": {
       "type": "Point",
       "coordinates":  [ -81.687012,30.320193,0 ]
    },
    "properties": {
    "AQSID":"120310084",
    "SiteName":"Rosselle & Copeland",
    "Status":"Inactive",
    "State":"FL",
    "Date":"4/25/2020",
    "Time":"4:00",
    "Ozone":-9999,
    "PM10":-9999,
    "PM25":-9999,
    "NO2":-9999
    }
  },
  {
    "type": "Feature",
    "geometry": {
       "type": "Point",
       "coordinates":  [ -96.785131,28.899617,18.3 ]
    },
    "properties": {
    "AQSID":"484690609",
    "SiteName":"Inez C609",
    "Status":"Inactive",
    "State":"TX",
    "Date":"4/25/2020",
    "Time":"4:00",
    "Ozone":-9999,
    "PM10":-9999,
    "PM25":-9999,
    "NO2":-9999
    }
  },
  {
    "type": "Feature",
    "geometry": {
       "type": "Point",
       "coordinates":  [ -81.631944,30.431111,0 ]
    },
    "properties": {
    "AQSID":"120310081",
    "SiteName":"Cedar Bay",
    "Status":"Active",
    "State":"FL",
    "Date":"4/25/2020",
    "Time":"4:00",
    "Ozone":-9999,
    "PM10":-9999,
    "PM25":-9999,
    "NO2":-9999
    }
  },
  {
    "type": "Feature",
    "geometry": {
       "type": "Point",
       "coordinates":  [ -81.652588,30.309197,0 ]
    },
    "properties": {
    "AQSID":"120310080",
    "SiteName":"SPG",
    "Status":"Inactive",
    "State":"FL",
    "Date":"4/25/2020",
    "Time":"4:00",
    "Ozone":-9999,
    "PM10":-9999,
    "PM25":-9999,
    "NO2":-9999
    }
  },
  {
    "type": "Feature",
    "geometry": {
       "type": "Point",
       "coordinates":  [ -119.7061,37.713299,1605.5 ]
    },
    "properties": {
    "AQSID":"60430003",
    "SiteName":"Yosemite NP Turtleback Dome",
    "Status":"Active",
    "State":"CA",
    "Date":"4/25/2020",
    "Time":"4:00",
    "Ozone":37,
    "PM10":-9999,
    "PM25":-9999,
    "NO2":-9999
    }
  },
  {
    "type": "Feature",
    "geometry": {
       "type": "Point",
       "coordinates":  [ -110.0547,42.7914,2174.3 ]
    },
    "properties": {
    "AQSID":"560350100",
    "SiteName":"Daniel South",
    "Status":"Active",
    "State":"WY",
    "Date":"4/25/2020",
    "Time":"4:00",
    "Ozone":38,
    "PM10":6,
    "PM25":-9999,
    "NO2":0
    }
  },
  {
    "type": "Feature",
    "geometry": {
       "type": "Point",
       "coordinates":  [ -109.8708,42.8698,2193 ]
    },
    "properties": {
    "AQSID":"560350101",
    "SiteName":"Pinedale Gaseous",
    "Status":"Active",
    "State":"WY",
    "Date":"4/25/2020",
    "Time":"4:00",
    "Ozone":34,
    "PM10":-9999,
    "PM25":6,
    "NO2":2
    }
  },
  {
    "type": "Feature",
    "geometry": {
       "type": "Point",
       "coordinates":  [ -80.0164,40.4456,0 ]
    },
    "properties": {
    "AQSID":"420030010",
    "SiteName":"PITT",
    "Status":"Inactive",
    "State":"PA",
    "Date":"4/25/2020",
    "Time":"4:00",
    "Ozone":-9999,
    "PM10":-9999,
    "PM25":-9999,
    "NO2":-9999
    }
  },
  {
    "type": "Feature",
    "geometry": {
       "type": "Point",
       "coordinates":  [ -119.83957,37.54377,1146.5 ]
    },
    "properties": {
    "AQSID":"60430006",
    "SiteName":"Jerseydale (seasonal)",
    "Status":"Active",
    "State":"CA",
    "Date":"4/25/2020",
    "Time":"4:00",
    "Ozone":39,
    "PM10":-9999,
    "PM25":-9999,
    "NO2":-9999
    }
  },
  {
    "type": "Feature",
    "geometry": {
       "type": "Point",
       "coordinates":  [ -122.064697,47.552502,14.9 ]
    },
    "properties": {
    "AQSID":"530330010",
    "SiteName":"Issaquah-Lake Sammamish (SOS)",
    "Status":"Active",
    "State":"WA",
    "Date":"4/25/2020",
    "Time":"4:00",
    "Ozone":-9999,
    "PM10":-9999,
    "PM25":-9999,
    "NO2":-9999
    }
  },
  {
    "type": "Feature",
    "geometry": {
       "type": "Point",
       "coordinates":  [ -80.4554,27.8492,1.8 ]
    },
    "properties": {
    "AQSID":"120619991",
    "SiteName":"Indian River Lagoon",
    "Status":"Active",
    "State":"FL",
    "Date":"4/25/2020",
    "Time":"4:00",
    "Ozone":43,
    "PM10":-9999,
    "PM25":-9999,
    "NO2":-9999
    }
  },
  {
    "type": "Feature",
    "geometry": {
       "type": "Point",
       "coordinates":  [ -74.129211,40.86073,0 ]
    },
    "properties": {
    "AQSID":"340318801",
    "SiteName":"Passaic",
    "Status":"Inactive",
    "State":"NJ",
    "Date":"4/25/2020",
    "Time":"4:00",
    "Ozone":-9999,
    "PM10":-9999,
    "PM25":-9999,
    "NO2":-9999
    }
  },
  {
    "type": "Feature",
    "geometry": {
       "type": "Point",
       "coordinates":  [ -75.2372,40.6922,0 ]
    },
    "properties": {
    "AQSID":"420958000",
    "SiteName":"EAS2",
    "Status":"Inactive",
    "State":"PA",
    "Date":"4/25/2020",
    "Time":"4:00",
    "Ozone":-9999,
    "PM10":-9999,
    "PM25":-9999,
    "NO2":-9999
    }
  },
  {
    "type": "Feature",
    "geometry": {
       "type": "Point",
       "coordinates":  [ -104.9372,39.8275,1571.1 ]
    },
    "properties": {
    "AQSID":"80010006",
    "SiteName":"Commerce City - 7101 Birch St.",
    "Status":"Inactive",
    "State":"CO",
    "Date":"4/25/2020",
    "Time":"4:00",
    "Ozone":-9999,
    "PM10":-9999,
    "PM25":-9999,
    "NO2":-9999
    }
  },
  {
    "type": "Feature",
    "geometry": {
       "type": "Point",
       "coordinates":  [ -122.311699,46.8447,248.9 ]
    },
    "properties": {
    "AQSID":"530531008",
    "SiteName":"La Grande-Pack Forest (SOS)",
    "Status":"Inactive",
    "State":"WA",
    "Date":"4/25/2020",
    "Time":"4:00",
    "Ozone":-9999,
    "PM10":-9999,
    "PM25":-9999,
    "NO2":-9999
    }
  },
  {
    "type": "Feature",
    "geometry": {
       "type": "Point",
       "coordinates":  [ -76.474444,39.310833,12.8 ]
    },
    "properties": {
    "AQSID":"240053001",
    "SiteName":"Essex",
    "Status":"Active",
    "State":"MD",
    "Date":"4/25/2020",
    "Time":"4:00",
    "Ozone":25,
    "PM10":-9999,
    "PM25":-9999,
    "NO2":6
    }
  },
  {
    "type": "Feature",
    "geometry": {
       "type": "Point",
       "coordinates":  [ -79.802314,36.109006,560.3 ]
    },
    "properties": {
    "AQSID":"370810013",
    "SiteName":"MENDNHAL",
    "Status":"Active",
    "State":"NC",
    "Date":"4/25/2020",
    "Time":"4:00",
    "Ozone":32,
    "PM10":5,
    "PM25":8,
    "NO2":-9999
    }
  },
  {
    "type": "Feature",
    "geometry": {
       "type": "Point",
       "coordinates":  [ -81.6339,30.1358,0 ]
    },
    "properties": {
    "AQSID":"120310098",
    "SiteName":"Mandarin",
    "Status":"Active",
    "State":"FL",
    "Date":"4/25/2020",
    "Time":"4:00",
    "Ozone":-9999,
    "PM10":22,
    "PM25":53,
    "NO2":-9999
    }
  },
  {
    "type": "Feature",
    "geometry": {
       "type": "Point",
       "coordinates":  [ -81.594167,30.367222,0 ]
    },
    "properties": {
    "AQSID":"120310097",
    "SiteName":"Ft Caroline",
    "Status":"Inactive",
    "State":"FL",
    "Date":"4/25/2020",
    "Time":"4:00",
    "Ozone":-9999,
    "PM10":-9999,
    "PM25":-9999,
    "NO2":-9999
    }
  },
  {
    "type": "Feature",
    "geometry": {
       "type": "Point",
       "coordinates":  [ -70.124893,43.974449,0 ]
    },
    "properties": {
    "AQSID":"230010014",
    "SiteName":"DURHAM",
    "Status":"Active",
    "State":"ME",
    "Date":"4/25/2020",
    "Time":"4:00",
    "Ozone":20,
    "PM10":-9999,
    "PM25":-9999,
    "NO2":-9999
    }
  },
  {
    "type": "Feature",
    "geometry": {
       "type": "Point",
       "coordinates":  [ -70.214134,44.089355,0 ]
    },
    "properties": {
    "AQSID":"230010011",
    "SiteName":"Lewiston",
    "Status":"Active",
    "State":"ME",
    "Date":"4/25/2020",
    "Time":"4:00",
    "Ozone":-9999,
    "PM10":-9999,
    "PM25":45,
    "NO2":-9999
    }
  },
  {
    "type": "Feature",
    "geometry": {
       "type": "Point",
       "coordinates":  [ -122.1222,46.7583,421.2 ]
    },
    "properties": {
    "AQSID":"530531010",
    "SiteName":"Mount Rainier NP",
    "Status":"Active",
    "State":"WA",
    "Date":"4/25/2020",
    "Time":"4:00",
    "Ozone":-9999,
    "PM10":-9999,
    "PM25":-9999,
    "NO2":-9999
    }
  },
  {
    "type": "Feature",
    "geometry": {
       "type": "Point",
       "coordinates":  [ -122.162003,47.754398,11.9 ]
    },
    "properties": {
    "AQSID":"530330028",
    "SiteName":"Woodinville-133rd Ave",
    "Status":"Inactive",
    "State":"WA",
    "Date":"4/25/2020",
    "Time":"4:00",
    "Ozone":-9999,
    "PM10":-9999,
    "PM25":-9999,
    "NO2":-9999
    }
  },
  {
    "type": "Feature",
    "geometry": {
       "type": "Point",
       "coordinates":  [ -122.280602,47.755001,16.2 ]
    },
    "properties": {
    "AQSID":"530330024",
    "SiteName":"Lake Forest Park-Town Center",
    "Status":"Active",
    "State":"WA",
    "Date":"4/25/2020",
    "Time":"4:00",
    "Ozone":-9999,
    "PM10":-9999,
    "PM25":19,
    "NO2":-9999
    }
  },
  {
    "type": "Feature",
    "geometry": {
       "type": "Point",
       "coordinates":  [ -120.8358,37.4883,0 ]
    },
    "properties": {
    "AQSID":"60990006",
    "SiteName":"Turlock - S. Minaret Street",
    "Status":"Active",
    "State":"CA",
    "Date":"4/25/2020",
    "Time":"4:00",
    "Ozone":25,
    "PM10":-9999,
    "PM25":16,
    "NO2":11
    }
  },
  {
    "type": "Feature",
    "geometry": {
       "type": "Point",
       "coordinates":  [ -121.937897,47.141102,402 ]
    },
    "properties": {
    "AQSID":"530330023",
    "SiteName":"Enumclaw Mud Mt (SO)",
    "Status":"Active",
    "State":"WA",
    "Date":"4/25/2020",
    "Time":"4:00",
    "Ozone":-9999,
    "PM10":-9999,
    "PM25":-9999,
    "NO2":-9999
    }
  },
  {
    "type": "Feature",
    "geometry": {
       "type": "Point",
       "coordinates":  [ -82.386101,34.325298,205.9 ]
    },
    "properties": {
    "AQSID":"450010001",
    "SiteName":"Due West",
    "Status":"Inactive",
    "State":"SC",
    "Date":"4/25/2020",
    "Time":"4:00",
    "Ozone":-9999,
    "PM10":-9999,
    "PM25":-9999,
    "NO2":-9999
    }
  },
  {
    "type": "Feature",
    "geometry": {
       "type": "Point",
       "coordinates":  [ -120.994212,37.642165,0 ]
    },
    "properties": {
    "AQSID":"60990005",
    "SiteName":"Modesto - 14th Street",
    "Status":"Active",
    "State":"CA",
    "Date":"4/25/2020",
    "Time":"4:00",
    "Ozone":35,
    "PM10":21,
    "PM25":16,
    "NO2":-9999
    }
  },
  {
    "type": "Feature",
    "geometry": {
       "type": "Point",
       "coordinates":  [ -93.6686,45.2108,0 ]
    },