{
  "type": "FeatureCollection",
  "features": [
    {
      "type": "Feature",
      "geometry": {
        "type": "Point",
        "coordinates": [-76.746814, 39.371679, 132.7]
      },
      "properties": {
        "AQSID": 240050009,
        "SiteName": "Baltimore County Near Road",
        "Status": "Active",
        "State": "MD",
        "Date": "4/25/2020",
        "Time": "4:00",
        "Ozone": -9999,
        "PM10": -9999,
        "PM25": -9999,
        "NO2": 15
      }
    },
    {
      "type": "Feature",
      "geometry": {
        "type": "Point",
        "coordinates": [-77.593597, 37.358898, 0]
      },
      "properties": {
        "AQSID": 510410004,
        "SiteName": "BEACH ROAD",
        "Status": "Active",
        "State": "VA",
        "Date": "4/25/2020",
        "Time": "4:00",
        "Ozone": 22,
        "PM10": -9999,
        "PM25": -9999,
        "NO2": -9999
      }
    },
    {
      "type": "Feature",
      "geometry": {
        "type": "Point",
        "coordinates": [-76.7314, 36.6675, 0]
      },
      "properties": {
        "AQSID": 518000005,
        "SiteName": "HOLLAND",
        "Status": "Active",
        "State": "VA",
        "Date": "4/25/2020",
        "Time": "4:00",
        "Ozone": 27,
        "PM10": -9999,
        "PM25": -9999,
        "NO2": -9999
      }
    },
    {
      "type": "Feature",
      "geometry": {
        "type": "Point",
        "coordinates": [-76.438599, 36.903301, 0]
      },
      "properties": {
        "AQSID": 518000004,
        "SiteName": "TIDEWATER COMM. COLLEGE",
        "Status": "Active",
        "State": "VA",
        "Date": "4/25/2020",
        "Time": "4:00",
        "Ozone": 29,
        "PM10": -9999,
        "PM25": -9999,
        "NO2": -9999
      }
    },
    {
      "type": "Feature",
      "geometry": {
        "type": "Point",
        "coordinates": [-76.604698, 39.2981, 11.9]
      },
      "properties": {
        "AQSID": 245100040,
        "SiteName": "Oldtown",
        "Status": "Active",
        "State": "MD",
        "Date": "4/25/2020",
        "Time": "4:00",
        "Ozone": -9999,
        "PM10": -9999,
        "PM25": 18,
        "NO2": 8
      }
    },
    {
      "type": "Feature",
      "geometry": {
        "type": "Point",
        "coordinates": [-76.617194, 38.536722, 43.3]
      },
      "properties": {
        "AQSID": 240090011,
        "SiteName": "Calvert",
        "Status": "Active",
        "State": "MD",
        "Date": "4/25/2020",
        "Time": "4:00",
        "Ozone": 24,
        "PM10": -9999,
        "PM25": -9999,
        "NO2": -9999
      }
    },
    {
      "type": "Feature",
      "geometry": {
        "type": "Point",
        "coordinates": [-77.465, 37.5626, 0]
      },
      "properties": {
        "AQSID": 517600024,
        "SiteName": "RICHMOND - SCIENCE MUSEUM",
        "Status": "Inactive",
        "State": "VA",
        "Date": "4/25/2020",
        "Time": "4:00",
        "Ozone": -9999,
        "PM10": -9999,
        "PM25": -9999,
        "NO2": -9999
      }
    },
    {
      "type": "Feature",
      "geometry": {
        "type": "Point",
        "coordinates": [-79.011902, 39.705799, 764.6]
      },
      "properties": {
        "AQSID": 240230002,
        "SiteName": "Piney Run",
        "Status": "Active",
        "State": "MD",
        "Date": "4/25/2020",
        "Time": "4:00",
        "Ozone": 15,
        "PM10": -9999,
        "PM25": 34,
        "NO2": 2
      }
    },
    {
      "type": "Feature",
      "geometry": {
        "type": "Point",
        "coordinates": [-75.159401, 38.251099, 2.7]
      },
      "properties": {
        "AQSID": 240471001,
        "SiteName": "Assateague Island NS",
        "Status": "Inactive",
        "State": "MD",
        "Date": "4/25/2020",
        "Time": "4:00",
        "Ozone": -9999,
        "PM10": -9999,
        "PM25": -9999,
        "NO2": -9999
      }
    },
    {
      "type": "Feature",
      "geometry": {
        "type": "Point",
        "coordinates": [-76.474444, 39.310833, 12.8]
      },
      "properties": {
        "AQSID": 240053001,
        "SiteName": "Essex",
        "Status": "Active",
        "State": "MD",
        "Date": "4/25/2020",
        "Time": "4:00",
        "Ozone": 25,
        "PM10": -9999,
        "PM25": -9999,
        "NO2": 6
      }
    },
    {
      "type": "Feature",
      "geometry": {
        "type": "Point",
        "coordinates": [-76.3992, 37.0033, 176.9]
      },
      "properties": {
        "AQSID": 516500004,
        "SiteName": "VA SCHOOL",
        "Status": "Inactive",
        "State": "VA",
        "Date": "4/25/2020",
        "Time": "4:00",
        "Ozone": -9999,
        "PM10": -9999,
        "PM25": -9999,
        "NO2": -9999
      }
    },
    {
      "type": "Feature",
      "geometry": {
        "type": "Point",
        "coordinates": [-76.386948, 37.103683, 4]
      },
      "properties": {
        "AQSID": 516500008,
        "SiteName": "HAMPTON",
        "Status": "Active",
        "State": "VA",
        "Date": "4/25/2020",
        "Time": "4:00",
        "Ozone": 28,
        "PM10": -9999,
        "PM25": 39,
        "NO2": 3
      }
    },
    {
      "type": "Feature",
      "geometry": {
        "type": "Point",
        "coordinates": [-76.203903, 39.563301, 127.8]
      },
      "properties": {
        "AQSID": 240259001,
        "SiteName": "Aldino",
        "Status": "Active",
        "State": "MD",
        "Date": "4/25/2020",
        "Time": "4:00",
        "Ozone": 27,
        "PM10": -9999,
        "PM25": -9999,
        "NO2": -9999
      }
    },
    {
      "type": "Feature",
      "geometry": {
        "type": "Point",
        "coordinates": [-81.254997, 36.893101, 0]
      },
      "properties": {
        "AQSID": 511970002,
        "SiteName": "RURAL RETREAT",
        "Status": "Active",
        "State": "VA",
        "Date": "4/25/2020",
        "Time": "4:00",
        "Ozone": 13,
        "PM10": -9999,
        "PM25": -9999,
        "NO2": -9999
      }
    },
    {
      "type": "Feature",
      "geometry": {
        "type": "Point",
        "coordinates": [-76.2967, 39.41, 8.5]
      },
      "properties": {
        "AQSID": 240251001,
        "SiteName": "Edgewood",
        "Status": "Active",
        "State": "MD",
        "Date": "4/25/2020",
        "Time": "4:00",
        "Ozone": 22,
        "PM10": -9999,
        "PM25": 13,
        "NO2": -9999
      }
    },
    {
      "type": "Feature",
      "geometry": {
        "type": "Point",
        "coordinates": [-79.5126, 37.62668, 287.9]
      },
      "properties": {
        "AQSID": 511630003,
        "SiteName": "NATBRIDGE",
        "Status": "Active",
        "State": "VA",
        "Date": "4/25/2020",
        "Time": "4:00",
        "Ozone": 26,
        "PM10": -9999,
        "PM25": -9999,
        "NO2": -9999
      }
    },
    {
      "type": "Feature",
      "geometry": {
        "type": "Point",
        "coordinates": [-76.511367, 39.158883, 59.8]
      },
      "properties": {
        "AQSID": 240032002,
        "SiteName": "Riviera Beach",
        "Status": "Active",
        "State": "MD",
        "Date": "4/25/2020",
        "Time": "4:00",
        "Ozone": -9999,
        "PM10": -9999,
        "PM25": -9999,
        "NO2": -9999
      }
    },
    {
      "type": "Feature",
      "geometry": {
        "type": "Point",
        "coordinates": [-76.811897, 38.5042, 51.2]
      },
      "properties": {
        "AQSID": 240170010,
        "SiteName": "Southern Maryland",
        "Status": "Active",
        "State": "MD",
        "Date": "4/25/2020",
        "Time": "4:00",
        "Ozone": 25,
        "PM10": -9999,
        "PM25": -9999,
        "NO2": -9999
      }
    },
    {
      "type": "Feature",
      "geometry": {
        "type": "Point",
        "coordinates": [-77.041702, 39.444199, 227.5]
      },
      "properties": {
        "AQSID": 240130001,
        "SiteName": "South Carroll",
        "Status": "Active",
        "State": "MD",
        "Date": "4/25/2020",
        "Time": "4:00",
        "Ozone": 21,
        "PM10": -9999,
        "PM25": -9999,
        "NO2": -9999
      }
    },
    {
      "type": "Feature",
      "geometry": {
        "type": "Point",
        "coordinates": [-77.37742, 38.20087, 68]
      },
      "properties": {
        "AQSID": 510330001,
        "SiteName": "CORBIN",
        "Status": "Active",
        "State": "VA",
        "Date": "4/25/2020",
        "Time": "4:00",
        "Ozone": 28,
        "PM10": -9999,
        "PM25": -9999,
        "NO2": -9999
      }
    },
    {
      "type": "Feature",
      "geometry": {
        "type": "Point",
        "coordinates": [-75.611, 39.595001, 0]
      },
      "properties": {
        "AQSID": 100031008,
        "SiteName": "Rte 9 Del. City",
        "Status": "Active",
        "State": "DE",
        "Date": "4/25/2020",
        "Time": "4:00",
        "Ozone": -9999,
        "PM10": -9999,
        "PM25": 19,
        "NO2": -9999
      }
    },
    {
      "type": "Feature",
      "geometry": {
        "type": "Point",
        "coordinates": [-75.7308, 39.5511, 0]
      },
      "properties": {
        "AQSID": 100031007,
        "SiteName": "LUMS 2",
        "Status": "Active",
        "State": "DE",
        "Date": "4/25/2020",
        "Time": "4:00",
        "Ozone": 19,
        "PM10": -9999,
        "PM25": 18,
        "NO2": -9999
      }
    },
    {
      "type": "Feature",
      "geometry": {
        "type": "Point",
        "coordinates": [-75.5639, 39.8172, 0]
      },
      "properties": {
        "AQSID": 100031010,
        "SiteName": "BCSP",
        "Status": "Active",
        "State": "DE",
        "Date": "4/25/2020",
        "Time": "4:00",
        "Ozone": 21,
        "PM10": -9999,
        "PM25": -9999,
        "NO2": -9999
      }
    },
    {
      "type": "Feature",
      "geometry": {
        "type": "Point",
        "coordinates": [-75.496399, 39.773899, 0]
      },
      "properties": {
        "AQSID": 100031013,
        "SiteName": "BELLFNT2",
        "Status": "Active",
        "State": "DE",
        "Date": "4/25/2020",
        "Time": "4:00",
        "Ozone": 27,
        "PM10": -9999,
        "PM25": -9999,
        "NO2": -9999
      }
    },
    {
      "type": "Feature",
      "geometry": {
        "type": "Point",
        "coordinates": [-77.198898, 38.9319, 0]
      },
      "properties": {
        "AQSID": 510595001,
        "SiteName": "LEWINSVILLE",
        "Status": "Inactive",
        "State": "VA",
        "Date": "4/25/2020",
        "Time": "4:00",
        "Ozone": -9999,
        "PM10": -9999,
        "PM25": -9999,
        "NO2": -9999
      }
    },
    {
      "type": "Feature",
      "geometry": {
        "type": "Point",
        "coordinates": [-79.884201, 37.285599, 0]
      },
      "properties": {
        "AQSID": 511611004,
        "SiteName": "EAST VINTON ELEMENTARY SCHOOL",
        "Status": "Active",
        "State": "VA",
        "Date": "4/25/2020",
        "Time": "4:00",
        "Ozone": 26,
        "PM10": -9999,
        "PM25": 13,
        "NO2": 5
      }
    },
    {
      "type": "Feature",
      "geometry": {
        "type": "Point",
        "coordinates": [-77.058899, 38.859402, 0]
      },
      "properties": {
        "AQSID": 510130020,
        "SiteName": "AURORA HILLS",
        "Status": "Active",
        "State": "VA",
        "Date": "4/25/2020",
        "Time": "4:00",
        "Ozone": 29,
        "PM10": -9999,
        "PM25": -9999,
        "NO2": 7
      }
    },
    {
      "type": "Feature",
      "geometry": {
        "type": "Point",
        "coordinates": [-77.40027, 37.55652, 58.6]
      },
      "properties": {
        "AQSID": 510870014,
        "SiteName": "MATH & SCIENCE CTR",
        "Status": "Active",
        "State": "VA",
        "Date": "4/25/2020",
        "Time": "4:00",
        "Ozone": 26,
        "PM10": -9999,
        "PM25": 28,
        "NO2": 2
      }
    },
    {
      "type": "Feature",
      "geometry": {
        "type": "Point",
        "coordinates": [-77.106903, 39.114399, 124.4]
      },
      "properties": {
        "AQSID": 240313001,
        "SiteName": "Rockville",
        "Status": "Active",
        "State": "MD",
        "Date": "4/25/2020",
        "Time": "4:00",
        "Ozone": 14,
        "PM10": -9999,
        "PM25": 13,
        "NO2": -9999
      }
    },
    {
      "type": "Feature",
      "geometry": {
        "type": "Point",
        "coordinates": [-78.31, 37.17, 150.1]
      },
      "properties": {
        "AQSID": 511479991,
        "SiteName": "Prince Edward",
        "Status": "Active",
        "State": "VA",
        "Date": "4/25/2020",
        "Time": "4:00",
        "Ozone": 25,
        "PM10": -9999,
        "PM25": -9999,
        "NO2": -9999
      }
    },
    {
      "type": "Feature",
      "geometry": {
        "type": "Point",
        "coordinates": [-75.797203, 39.305199, 22.3]
      },
      "properties": {
        "AQSID": 240290002,
        "SiteName": "Millington",
        "Status": "Active",
        "State": "MD",
        "Date": "4/25/2020",
        "Time": "4:00",
        "Ozone": 23,
        "PM10": -9999,
        "PM25": 25,
        "NO2": -9999
      }
    },
    {
      "type": "Feature",
      "geometry": {
        "type": "Point",
        "coordinates": [-76.631599, 39.462002, 119.6]
      },
      "properties": {
        "AQSID": 240051007,
        "SiteName": "Padonia",
        "Status": "Active",
        "State": "MD",
        "Date": "4/25/2020",
        "Time": "4:00",
        "Ozone": 27,
        "PM10": -9999,
        "PM25": 15,
        "NO2": -9999
      }
    },
    {
      "type": "Feature",
      "geometry": {
        "type": "Point",
        "coordinates": [-75.545666, 38.013875, 0]
      },
      "properties": {
        "AQSID": 840240000000,
        "SiteName": "Pocomoke City",
        "Status": "Active",
        "State": "MD",
        "Date": "4/25/2020",
        "Time": "4:00",
        "Ozone": -9999,
        "PM10": 9,
        "PM25": 30,
        "NO2": -9999
      }
    },
    {
      "type": "Feature",
      "geometry": {
        "type": "Point",
        "coordinates": [-77.635597, 38.855301, 0]
      },
      "properties": {
        "AQSID": 511530009,
        "SiteName": "JAMES S. LONG PARK",
        "Status": "Active",
        "State": "VA",
        "Date": "4/25/2020",
        "Time": "4:00",
        "Ozone": 23,
        "PM10": -9999,
        "PM25": -9999,
        "NO2": 2
      }
    },
    {
      "type": "Feature",
      "geometry": {
        "type": "Point",
        "coordinates": [-77.3703, 38.483101, 0]
      },
      "properties": {
        "AQSID": 511790001,
        "SiteName": "WIDEWATER",
        "Status": "Active",
        "State": "VA",
        "Date": "4/25/2020",
        "Time": "4:00",
        "Ozone": 29,
        "PM10": -9999,
        "PM25": -9999,
        "NO2": -9999
      }
    },
    {
      "type": "Feature",
      "geometry": {
        "type": "Point",
        "coordinates": [-77.260803, 37.3419, 0]
      },
      "properties": {
        "AQSID": 510360002,
        "SiteName": "SHIRLEY PLANTATION",
        "Status": "Active",
        "State": "VA",
        "Date": "4/25/2020",
        "Time": "4:00",
        "Ozone": 20,
        "PM10": -9999,
        "PM25": -9999,
        "NO2": 2
      }
    },
    {
      "type": "Feature",
      "geometry": {
        "type": "Point",
        "coordinates": [-76.8172, 39.0284, 45.8]
      },
      "properties": {
        "AQSID": 240339991,
        "SiteName": "Beltsville",
        "Status": "Active",
        "State": "MD",
        "Date": "4/25/2020",
        "Time": "4:00",
        "Ozone": 20,
        "PM10": -9999,
        "PM25": -9999,
        "NO2": -9999
      }
    },
    {
      "type": "Feature",
      "geometry": {
        "type": "Point",
        "coordinates": [-78.4347, 38.5231, 1073.3]
      },
      "properties": {
        "AQSID": 511130003,
        "SiteName": "Shenandoah NP",
        "Status": "Active",
        "State": "VA",
        "Date": "4/25/2020",
        "Time": "4:00",
        "Ozone": 26,
        "PM10": -9999,
        "PM25": 9,
        "NO2": -9999
      }
    },
    {
      "type": "Feature",
      "geometry": {
        "type": "Point",
        "coordinates": [-77.37519, 39.42276, 88.8]
      },
      "properties": {
        "AQSID": 240210037,
        "SiteName": "Frederick Airport",
        "Status": "Active",
        "State": "MD",
        "Date": "4/25/2020",
        "Time": "4:00",
        "Ozone": 13,
        "PM10": -9999,
        "PM25": -9999,
        "NO2": -9999
      }
    },
    {
      "type": "Feature",
      "geometry": {
        "type": "Point",
        "coordinates": [-76.1114, 38.445, 4]
      },
      "properties": {
        "AQSID": 240199991,
        "SiteName": "Blackwater NWR",
        "Status": "Active",
        "State": "MD",
        "Date": "4/25/2020",
        "Time": "4:00",
        "Ozone": 24,
        "PM10": -9999,
        "PM25": -9999,
        "NO2": -9999
      }
    },
    {
      "type": "Feature",
      "geometry": {
        "type": "Point",
        "coordinates": [-77.108902, 38.771702, 68]
      },
      "properties": {
        "AQSID": 510590030,
        "SiteName": "FRANCONIA",
        "Status": "Active",
        "State": "VA",
        "Date": "4/25/2020",
        "Time": "4:00",
        "Ozone": 31,
        "PM10": -9999,
        "PM25": 18,
        "NO2": -9999
      }
    },
    {
      "type": "Feature",
      "geometry": {
        "type": "Point",
        "coordinates": [-78.503998, 38.076599, 176.9]
      },
      "properties": {
        "AQSID": 510030001,
        "SiteName": "Albemarle HS",
        "Status": "Active",
        "State": "VA",
        "Date": "4/25/2020",
        "Time": "4:00",
        "Ozone": 23,
        "PM10": -9999,
        "PM25": 21,
        "NO2": -9999
      }
    },
    {
      "type": "Feature",
      "geometry": {
        "type": "Point",
        "coordinates": [-76.3446, 39.2572, 13.4]
      },
      "properties": {
        "AQSID": 240053474,
        "SiteName": "Hart Miller Island",
        "Status": "Inactive",
        "State": "MD",
        "Date": "4/25/2020",
        "Time": "4:00",
        "Ozone": -9999,
        "PM10": -9999,
        "PM25": -9999,
        "NO2": -9999
      }
    },
    {
      "type": "Feature",
      "geometry": {
        "type": "Point",
        "coordinates": [-77.465302, 38.893902, 0]
      },
      "properties": {
        "AQSID": 510590005,
        "SiteName": "CUB RUN",
        "Status": "Inactive",
        "State": "VA",
        "Date": "4/25/2020",
        "Time": "4:00",
        "Ozone": -9999,
        "PM10": -9999,
        "PM25": -9999,
        "NO2": -9999
      }
    },
    {
      "type": "Feature",
      "geometry": {
        "type": "Point",
        "coordinates": [-77.077499, 38.7425, 0]
      },
      "properties": {
        "AQSID": 510590018,
        "SiteName": "MT VERNON",
        "Status": "Inactive",
        "State": "VA",
        "Date": "4/25/2020",
        "Time": "4:00",
        "Ozone": -9999,
        "PM10": -9999,
        "PM25": -9999,
        "NO2": -9999
      }
    },
    {
      "type": "Feature",
      "geometry": {
        "type": "Point",
        "coordinates": [-77.012816, 38.875161, 0]
      },
      "properties": {
        "AQSID": 840110000000,
        "SiteName": "King Greenleaf Rec Center",
        "Status": "Active",
        "State": "DC",
        "Date": "4/25/2020",
        "Time": "4:00",
        "Ozone": -9999,
        "PM10": -9999,
        "PM25": 18,
        "NO2": -9999
      }
    },
    {
      "type": "Feature",
      "geometry": {
        "type": "Point",
        "coordinates": [-76.1408, 38.5876, 2.7]
      },
      "properties": {
        "AQSID": 240190004,
        "SiteName": "Horn Point",
        "Status": "Active",
        "State": "MD",
        "Date": "4/25/2020",
        "Time": "4:00",
        "Ozone": 24,
        "PM10": -9999,
        "PM25": 22,
        "NO2": -9999
      }
    },
    {
      "type": "Feature",
      "geometry": {
        "type": "Point",
        "coordinates": [-77.767799, 38.474998, 0]
      },
      "properties": {
        "AQSID": 510610002,
        "SiteName": "SUMERDUCK",
        "Status": "Active",
        "State": "VA",
        "Date": "4/25/2020",
        "Time": "4:00",
        "Ozone": 23,
        "PM10": -9999,
        "PM25": -9999,
        "NO2": -9999
      }
    },
    {
      "type": "Feature",
      "geometry": {
        "type": "Point",
        "coordinates": [-75.5556, 38.9847, 0]
      },
      "properties": {
        "AQSID": 100010002,
        "SiteName": "KILLENS",
        "Status": "Active",
        "State": "DE",
        "Date": "4/25/2020",
        "Time": "4:00",
        "Ozone": 24,
        "PM10": -9999,
        "PM25": 32,
        "NO2": -9999
      }
    },
    {
      "type": "Feature",
      "geometry": {
        "type": "Point",
        "coordinates": [-78.5047, 38.663101, 0]
      },
      "properties": {
        "AQSID": 511390004,
        "SiteName": "LURAY",
        "Status": "Inactive",
        "State": "VA",
        "Date": "4/25/2020",
        "Time": "4:00",
        "Ozone": -9999,
        "PM10": -9999,
        "PM25": -9999,
        "NO2": -9999
      }
    },
    {
      "type": "Feature",
      "geometry": {
        "type": "Point",
        "coordinates": [-77.0467, 38.92726, 0]
      },
      "properties": {
        "AQSID": 110019999,
        "SiteName": "Washington",
        "Status": "Active",
        "State": "DC",
        "Date": "4/25/2020",
        "Time": "4:00",
        "Ozone": -9999,
        "PM10": -9999,
        "PM25": -9999,
        "NO2": -9999
      }
    },
    {
      "type": "Feature",
      "geometry": {
        "type": "Point",
        "coordinates": [-75.860001, 39.701099, 117.7]
      },
      "properties": {
        "AQSID": 240150003,
        "SiteName": "Fair Hill",
        "Status": "Active",
        "State": "MD",
        "Date": "4/25/2020",
        "Time": "4:00",
        "Ozone": 24,
        "PM10": -9999,
        "PM25": 20,
        "NO2": -9999
      }
    },
    {
      "type": "Feature",
      "geometry": {
        "type": "Point",
        "coordinates": [-77.721901, 39.565601, 163.5]
      },
      "properties": {
        "AQSID": 240430009,
        "SiteName": "Hagerstown",
        "Status": "Active",
        "State": "MD",
        "Date": "4/25/2020",
        "Time": "4:00",
        "Ozone": 17,
        "PM10": -9999,
        "PM25": 27,
        "NO2": -9999
      }
    },
    {
      "type": "Feature",
      "geometry": {
        "type": "Point",
        "coordinates": [-78.816704, 38.4772, 0]
      },
      "properties": {
        "AQSID": 511650003,
        "SiteName": "Rockingham",
        "Status": "Active",
        "State": "VA",
        "Date": "4/25/2020",
        "Time": "4:00",
        "Ozone": 7,
        "PM10": -9999,
        "PM25": -9999,
        "NO2": 14
      }
    },
    {
      "type": "Feature",
      "geometry": {
        "type": "Point",
        "coordinates": [-77.218903, 37.606098, 0]
      },
      "properties": {
        "AQSID": 510850003,
        "SiteName": "HANOVER",
        "Status": "Active",
        "State": "VA",
        "Date": "4/25/2020",
        "Time": "4:00",
        "Ozone": 24,
        "PM10": -9999,
        "PM25": -9999,
        "NO2": -9999
      }
    },
    {
      "type": "Feature",
      "geometry": {
        "type": "Point",
        "coordinates": [-76.481003, 37.0998, 11]
      },
      "properties": {
        "AQSID": 517000013,
        "SiteName": "Newport News",
        "Status": "Inactive",
        "State": "VA",
        "Date": "4/25/2020",
        "Time": "4:00",
        "Ozone": -9999,
        "PM10": -9999,
        "PM25": -9999,
        "NO2": -9999
      }
    },
    {
      "type": "Feature",
      "geometry": {
        "type": "Point",
        "coordinates": [-79.955597, 37.297199, 329.1]
      },
      "properties": {
        "AQSID": 517700015,
        "SiteName": "Round Hill Montessori School",
        "Status": "Inactive",
        "State": "VA",
        "Date": "4/25/2020",
        "Time": "4:00",
        "Ozone": -9999,
        "PM10": -9999,
        "PM25": -9999,
        "NO2": -9999
      }
    },
    {
      "type": "Feature",
      "geometry": {
        "type": "Point",
        "coordinates": [-76.744186, 38.812069, 5.8]
      },
      "properties": {
        "AQSID": 240338003,
        "SiteName": "PG Equestrian Center",
        "Status": "Active",
        "State": "MD",
        "Date": "4/25/2020",
        "Time": "4:00",
        "Ozone": 26,
        "PM10": -9999,
        "PM25": -9999,
        "NO2": -9999
      }
    },
    {
      "type": "Feature",
      "geometry": {
        "type": "Point",
        "coordinates": [-78.081398, 39.282799, 191.8]
      },
      "properties": {
        "AQSID": 510690010,
        "SiteName": "BUTLER MANUF. CO NEAR REST",
        "Status": "Active",
        "State": "VA",
        "Date": "4/25/2020",
        "Time": "4:00",
        "Ozone": 14,
        "PM10": -9999,
        "PM25": 24,
        "NO2": -9999
      }
    },
    {
      "type": "Feature",
      "geometry": {
        "type": "Point",
        "coordinates": [-75.6131, 38.6444, 0]
      },
      "properties": {
        "AQSID": 100051002,
        "SiteName": "SEAFORD",
        "Status": "Active",
        "State": "DE",
        "Date": "4/25/2020",
        "Time": "4:00",
        "Ozone": 29,
        "PM10": -9999,
        "PM25": 33,
        "NO2": -9999
      }
    },
    {
      "type": "Feature",
      "geometry": {
        "type": "Point",
        "coordinates": [-75.1667, 38.7833, 0]
      },
      "properties": {
        "AQSID": 100051003,
        "SiteName": "LEWES",
        "Status": "Active",
        "State": "DE",
        "Date": "4/25/2020",
        "Time": "4:00",
        "Ozone": 32,
        "PM10": -9999,
        "PM25": -9999,
        "NO2": -9999
      }
    },
    {
      "type": "Feature",
      "geometry": {
        "type": "Point",
        "coordinates": [-76.6281, 39.1694, 12.2]
      },
      "properties": {
        "AQSID": 240031003,
        "SiteName": "Glen Burnie",
        "Status": "Active",
        "State": "MD",
        "Date": "4/25/2020",
        "Time": "4:00",
        "Ozone": 28,
        "PM10": -9999,
        "PM25": -9999,
        "NO2": -9999
      }
    },
    {
      "type": "Feature",
      "geometry": {
        "type": "Point",
        "coordinates": [-76.433073, 39.109951, 0]
      },
      "properties": {
        "AQSID": 240033696,
        "SiteName": "Downs Park",
        "Status": "Inactive",
        "State": "MD",
        "Date": "4/25/2020",
        "Time": "4:00",
        "Ozone": -9999,
        "PM10": -9999,
        "PM25": -9999,
        "NO2": -9999
      }
    },
    {
      "type": "Feature",
      "geometry": {
        "type": "Point",
        "coordinates": [-77.489998, 39.024399, 0]
      },
      "properties": {
        "AQSID": 511071005,
        "SiteName": "ASHBURN",
        "Status": "Active",
        "State": "VA",
        "Date": "4/25/2020",
        "Time": "4:00",
        "Ozone": 21,
        "PM10": -9999,
        "PM25": -9999,
        "NO2": 4
      }
    },
    {
      "type": "Feature",
      "geometry": {
        "type": "Point",
        "coordinates": [-75.5581, 39.7394, 0]
      },
      "properties": {
        "AQSID": 100032004,
        "SiteName": "MLK",
        "Status": "Active",
        "State": "DE",
        "Date": "4/25/2020",
        "Time": "4:00",
        "Ozone": 22,
        "PM10": -9999,
        "PM25": 27,
        "NO2": -9999
      }
    },
    {
      "type": "Feature",
      "geometry": {
        "type": "Point",
        "coordinates": [-76.846192, 39.143197, 96.7]
      },
      "properties": {
        "AQSID": 240270006,
        "SiteName": "Howard County Near Road",
        "Status": "Active",
        "State": "MD",
        "Date": "4/25/2020",
        "Time": "4:00",
        "Ozone": -9999,
        "PM10": -9999,
        "PM25": 25,
        "NO2": 16
      }
    },
    {
      "type": "Feature",
      "geometry": {
        "type": "Point",
        "coordinates": [-79.026383, 39.483617, 494.1]
      },
      "properties": {
        "AQSID": 240018882,
        "SiteName": "Horse Rock",
        "Status": "Active",
        "State": "MD",
        "Date": "4/25/2020",
        "Time": "4:00",
        "Ozone": -9999,
        "PM10": -9999,
        "PM25": -9999,
        "NO2": -9999
      }
    },
    {
      "type": "Feature",
      "geometry": {
        "type": "Point",
        "coordinates": [-79.0638, 39.4864, 499.3]
      },
      "properties": {
        "AQSID": 240018881,
        "SiteName": "Moran",
        "Status": "Active",
        "State": "MD",
        "Date": "4/25/2020",
        "Time": "4:00",
        "Ozone": -9999,
        "PM10": -9999,
        "PM25": -9999,
        "NO2": -9999
      }
    },
    {
      "type": "Feature",
      "geometry": {
        "type": "Point",
        "coordinates": [-75.701489, 38.176541, 0]
      },
      "properties": {
        "AQSID": 840240000000,
        "SiteName": "UMES Farm",
        "Status": "Active",
        "State": "MD",
        "Date": "4/25/2020",
        "Time": "4:00",
        "Ozone": -9999,
        "PM10": 8,
        "PM25": 27,
        "NO2": -9999
      }
    },
    {
      "type": "Feature",
      "geometry": {
        "type": "Point",
        "coordinates": [-77.1633, 38.837502, 0]
      },
      "properties": {
        "AQSID": 510591005,
        "SiteName": "Annandale",
        "Status": "Inactive",
        "State": "VA",
        "Date": "4/25/2020",
        "Time": "4:00",
        "Ozone": -9999,
        "PM10": -9999,
        "PM25": -9999,
        "NO2": -9999
      }
    },
    {
      "type": "Feature",
      "geometry": {
        "type": "Point",
        "coordinates": [-80.5578, 37.3297, 920.5]
      },
      "properties": {
        "AQSID": 510719991,
        "SiteName": "Horton Station",
        "Status": "Active",
        "State": "VA",
        "Date": "4/25/2020",
        "Time": "4:00",
        "Ozone": 35,
        "PM10": -9999,
        "PM25": -9999,
        "NO2": -9999
      }
    },
    {
      "type": "Feature",
      "geometry": {
        "type": "Point",
        "coordinates": [-76.878304, 39.055302, 52.8]
      },
      "properties": {
        "AQSID": 240330030,
        "SiteName": "HU-Beltsville",
        "Status": "Active",
        "State": "MD",
        "Date": "4/25/2020",
        "Time": "4:00",
        "Ozone": 20,
        "PM10": -9999,
        "PM25": 10,
        "NO2": 4
      }
    },
    {
      "type": "Feature",
      "geometry": {
        "type": "Point",
        "coordinates": [-77.033129, 38.876048, 0]
      },
      "properties": {
        "AQSID": 110010042,
        "SiteName": "Ohio Drive",
        "Status": "Inactive",
        "State": "DC",
        "Date": "4/25/2020",
        "Time": "4:00",
        "Ozone": -9999,
        "PM10": -9999,
        "PM25": -9999,
        "NO2": -9999
      }
    },
    {
      "type": "Feature",
      "geometry": {
        "type": "Point",
        "coordinates": [-76.958089, 38.895683, 0]
      },
      "properties": {
        "AQSID": 110010041,
        "SiteName": "RIVER_Terrace",
        "Status": "Active",
        "State": "DC",
        "Date": "4/25/2020",
        "Time": "4:00",
        "Ozone": 24,
        "PM10": -9999,
        "PM25": 15,
        "NO2": 8
      }
    },
    {
      "type": "Feature",
      "geometry": {
        "type": "Point",
        "coordinates": [-77.013176, 38.921848, 0]
      },
      "properties": {
        "AQSID": 110010044,
        "SiteName": "McMillan NCORE",
        "Status": "Active",
        "State": "DC",
        "Date": "4/25/2020",
        "Time": "4:00",
        "Ozone": 30,
        "PM10": 7,
        "PM25": -9999,
        "NO2": 8
      }
    },
    {
      "type": "Feature",
      "geometry": {
        "type": "Point",
        "coordinates": [-77.013176, 38.921848, 0]
      },
      "properties": {
        "AQSID": 110010043,
        "SiteName": "McMillan Reservoir",
        "Status": "Active",
        "State": "DC",
        "Date": "4/25/2020",
        "Time": "4:00",
        "Ozone": -9999,
        "PM10": -9999,
        "PM25": 13,
        "NO2": -9999
      }
    },
    {
      "type": "Feature",
      "geometry": {
        "type": "Point",
        "coordinates": [-76.953427, 38.894749, 0]
      },
      "properties": {
        "AQSID": 110010051,
        "SiteName": "DCNearRoad",
        "Status": "Active",
        "State": "DC",
        "Date": "4/25/2020",
        "Time": "4:00",
        "Ozone": -9999,
        "PM10": -9999,
        "PM25": 18,
        "NO2": 9
      }
    },
    {
      "type": "Feature",
      "geometry": {
        "type": "Point",
        "coordinates": [-77.016715, 38.970101, 0]
      },
      "properties": {
        "AQSID": 110010050,
        "SiteName": "TakomaRec",
        "Status": "Active",
        "State": "DC",
        "Date": "4/25/2020",
        "Time": "4:00",
        "Ozone": 25,
        "PM10": -9999,
        "PM25": -9999,
        "NO2": 10
      }
    },
    {
      "type": "Feature",
      "geometry": {
        "type": "Point",
        "coordinates": [-77.0439, 38.813099, 0]
      },
      "properties": {
        "AQSID": 515100009,
        "SiteName": "ALEXANDRIA HEALTH",
        "Status": "Inactive",
        "State": "VA",
        "Date": "4/25/2020",
        "Time": "4:00",
        "Ozone": -9999,
        "PM10": -9999,
        "PM25": -9999,
        "NO2": -9999
      }
    },
    {
      "type": "Feature",
      "geometry": {
        "type": "Point",
        "coordinates": [-76.30135, 36.85555, 0]
      },
      "properties": {
        "AQSID": 517100024,
        "SiteName": "NORFOLK - NOAA",
        "Status": "Active",
        "State": "VA",
        "Date": "4/25/2020",
        "Time": "4:00",
        "Ozone": -9999,
        "PM10": -9999,
        "PM25": -9999,
        "NO2": 4
      }
    }
  ]
}
